stop_id,stop_name,stop_lat,stop_lon,location_type,parent_station
10025,"Kiskunhalas, autóbusz-állomás",46.430103,19.476823,1,
10074,"Kiskunmajsa, autóbusz-váróterem",46.491980,19.736518,1,
10124,"Kiskőrös, vasútállomás",46.626369,19.295762,1,
1048,"Sárbogárd, vasútállomás",46.896825,18.612613,1,
10679,"Gyöngyös, autóbusz-állomás",47.782388,19.930058,1,
10700,"Mátraháza, autóbusz-állomás",47.870038,19.978955,1,
10842,"Balassagyarmat, autóbusz-állomás",48.083947,19.296898,1,
11015,"Pásztó, vasútállomás",47.919094,19.689364,1,
11706,"Harkány, autóbusz-állomás",45.850355,18.243232,1,
11754,"Pécs, autóbusz-állomás",46.070519,18.232378,1,
11867,"Komló, autóbusz-állomás",46.189552,18.265560,1,
12140,"Sellye, autóbusz-váróterem",45.874651,17.850912,1,
12149,"Siklós, autóbusz-állomás",45.856219,18.292676,1,
12240,"Szigetvár, autóbusz-állomás",46.044147,17.802897,1,
12272,"Szászvár, Május 1. tér",46.273515,18.377911,1,
12279,"Sásd, kaposvári útelágazás",46.255148,18.105581,1,
12314,"Vajszló, autóbusz-váróterem",45.861591,17.988002,1,
12420,"Baktalórántháza, Fő tér",47.997815,22.075692,1,
12573,"Csenger, autóbusz-állomás",47.836928,22.680236,1,
12638,"Fehérgyarmat, autóbusz-állomás",47.989981,22.515626,1,
12825,"Kisvárda, autóbusz-állomás",48.209075,22.077789,1,
1291,"Ajka, autóbusz-állomás",47.107032,17.565270,1,
12978,"Mátészalka, autóbusz-állomás",47.951453,22.314068,1,
13082,"Nyíregyháza, autóbusz-állomás",47.950301,21.704287,1,
1311,"Alsóörs, vasútállomás",46.985564,17.975686,1,
13286,"Nyírbátor, vasútállomás",47.842180,22.130438,1,
13672,"Tiszalök, autóbusz-váróterem",48.016168,21.375018,1,
13816,"Vásárosnamény, vasútállomás",48.126874,22.305859,1,
13860,"Záhony, vasútállomás",48.401228,22.182254,1,
14038,"Hódmezővásárhely, autóbusz-állomás",46.415971,20.329479,1,
1418,"Balatonalmádi, autóbusz-állomás",47.030277,18.015144,1,
14186,"Csongrád, autóbusz-állomás",46.708704,20.147670,1,
14383,"Makó, autóbusz-állomás",46.219410,20.476397,1,
1440,"Balatonfüred, autóbusz-állomás",46.955554,17.883016,1,
14431,"Mórahalom, autóbusz-állomás",46.216493,19.890463,1,
14611,"Szeged, autóbusz-állomás",46.257061,20.140881,1,
14680,"Szentes, autóbusz-állomás",46.650930,20.259964,1,
15028,"Celldömölk, vasútállomás",47.260979,17.152150,1,
15044,"Csepreg, Promenád",47.403344,16.705558,1,
15247,"Kőszeg, autóbusz-állomás",47.387250,16.544473,1,
15249,"Kőszeg, vasútállomás",47.381509,16.556168,1,
15331,"Vasvár, autóbusz-állomás",47.046951,16.802646,1,
15570,"Szombathely, autóbusz-állomás",47.232837,16.615745,1,
15621,"Sárvár, autóbusz-állomás",47.254209,16.926248,1,
15625,"Sárvár, vasútállomás",47.258529,16.928941,1,
15710,"Őriszentpéter, autóbusz-állomás",46.840499,16.422267,1,
15753,"Almásfüzítő, vasútállomás",47.725224,18.263106,1,
15969,"Kisbér, autóbusz-állomás",47.500233,18.026036,1,
16052,"Komárom, autóbusz-állomás",47.747374,18.114337,1,
16115,"Tata, autóbusz-állomás",47.649949,18.316549,1,
16118,"Tata, vasútállomás",47.664218,18.327073,1,
16139,"Nagyigmánd, autóbusz-váróterem",47.633389,18.076868,1,
16312,"Tatabánya, autóbusz-állomás",47.587024,18.392775,1,
16487,"Aszód, vasútállomás",47.648061,19.492647,1,
16600,"Budapest, Stadion autóbusz-pályaudvar",47.501185,19.106968,1,
16646,"Budapest, Népliget autóbusz-pályaudvar",47.474997,19.098714,1,
16665,"Budapest, Árpád híd autóbusz-állomás",47.531795,19.065352,1,
16674,"Budapest, Kelenföld vasútállomás",47.463567,19.022441,1,
16794,"Cegléd, autóbusz-állomás",47.182092,19.803859,1,
1680,"Herend, autóbusz-váróterem",47.131844,17.749797,1,
170,"Füzesabony, vasútállomás",47.750960,20.417709,1,
17214,"Fót, autóbusz-állomás",47.616974,19.195395,1,
17320,"Gödöllő, autóbusz-állomás",47.598881,19.352210,1,
17413,"Szentendre, autóbusz-állomás",47.660294,19.075354,1,
17468,"Pomáz, autóbusz-állomás",47.642095,19.033299,1,
176,"Heves, autóbusz-állomás",47.593708,20.281006,1,
17613,"Monor, autóbusz-állomás",47.350475,19.447848,1,
1817,"Veszprém, autóbusz-állomás",47.095334,17.913774,1,
1823,"Veszprém, vasútállomás",47.118010,17.911086,1,
18260,"Veresegyház, vasútállomás",47.649221,19.288493,1,
18343,"Vác, autóbusz-állomás",47.781664,19.129970,1,
18436,"Érd, autóbusz-állomás",47.379701,18.925127,1,
18563,"Szigethalom, autóbusz-állomás",47.331669,19.002686,1,
18707,"Zalaszentgrót, autóbusz-állomás",46.945253,17.076742,1,
18824,"Zalaegerszeg, autóbusz-állomás",46.844872,16.849346,1,
18971,"Letenye, autóbusz-állomás",46.432749,16.722986,1,
19027,"Keszthely, autóbusz-állomás",46.757964,17.246476,1,
19125,"Hévíz, autóbusz-állomás",46.793002,17.192345,1,
19248,"Lenti, autóbusz-állomás",46.622325,16.540958,1,
19343,"Nagykanizsa, autóbusz-állomás",46.456472,16.986258,1,
19467,"Pacsa, autóbusz-állomás",46.722425,17.008861,1,
19723,"Zalakaros, autóbusz-állomás",46.551916,17.123476,1,
2043,"Pápa, autóbusz-állomás",47.331784,17.468806,1,
2065,"Pápa, vasútállomás",47.339774,17.460164,1,
2093,"Révfülöp, vasútállomás",46.829251,17.631976,1,
2147,"Sümeg, autóbusz-állomás",46.976688,17.282613,1,
2178,"Tapolca, autóbusz-állomás",46.882759,17.435863,1,
2275,"Várpalota, autóbusz-állomás",47.202703,18.146133,1,
2311,"Zirc, Rákóczi tér",47.263257,17.872038,1,
2408,"Baja, autóbusz-állomás",46.183693,18.956124,1,
2429,"Bácsalmás, autóbusz-állomás",46.128123,19.329814,1,
24837,"Budapest, Újpest-Városkapu XIII. kerület",47.558879,19.078711,1,
24886,"Zirc, autóbusz-állomás (vasútállomás)",47.267369,17.876664,1,
24908,"Szécsény, autóbusz-állomás",48.081613,19.524237,1,
25182,"Baja, vonatkerti autóbusz-állomás",46.186077,18.957984,1,
2618,"Mohács, autóbusz-állomás",45.989168,18.685914,1,
2656,"Encs, autóbusz-állomás",48.328358,21.118055,1,
2824,"Kazincbarcika, Szent Flórián tér autóbusz-váróterem",48.249618,20.647424,1,
2828,"Kazincbarcika, autóbusz-állomás",48.245391,20.615703,1,
28687,"Nagykálló, autóbusz-állomás",47.876651,21.849897,1,
28899,"Sajóbábony, ipari park",48.164543,20.713771,1,
28970,"Sándorfalva, autóbusz-állomás",46.366574,20.106100,1,
28977,"Kistelek, autóbusz-állomás",46.469653,19.981869,1,
28985,"Hatvan, autóbusz-pályaudvar",47.667530,19.671310,1,
30007,"Nagybajom, autóbusz-váróterem",46.391551,17.509976,1,
3056,"Edelény, autóbusz-állomás",48.295579,20.743041,1,
31474,Autóbusz-állomás,46.670062,21.083525,1,
31475,Autóbusz-állomás,46.563842,20.662973,1,
31910,"Esztergom, vasútállomás",47.778232,18.743767,1,
33398,Helyi autóbusz-állomás,48.087796,19.793073,1,
3379,"Mezőkövesd, autóbusz-állomás",47.808363,20.566601,1,
3484,"Mezőcsát, autóbusz-váróterem",47.820484,20.902614,1,
3565,"Miskolc, autóbusz-állomás",48.105803,20.791572,1,
37148,"Budapest (Csepel), Vermes Miklós utca",47.432208,19.066784,1,
37149,"Várpalota, Csór-Nádasdladány vasútállomás",47.174016,18.220452,,
38969,"Tiszaújváros, autóbusz-állomás",47.929818,21.032004,1,
4068,"Sátoraljaújhely, vasútállomás",48.386239,21.657409,1,
41726,"Sopron, autóbusz-állomás",47.688480,16.586632,1,
4175,"Tiszaújváros, MOL autóbusz-váróterem",47.919129,21.029361,1,
4178,"Tiszaújváros, autóbusz-állomás",47.929818,21.032005,1,
42674,Autóbusz-állomás,47.650061,18.316285,1,
4339,"Ózd, autóbusz-állomás",48.218742,20.290178,1,
4451,"Bonyhád, autóbusz-állomás",46.298146,18.535189,1,
4537,"Dombóvár, autóbusz-állomás",46.369992,18.148876,1,
4554,"Dunaföldvár, autóbusz-állomás",46.805238,18.926113,1,
4595,"Paks, autóbusz-állomás",46.620037,18.858569,1,
46121,"Rétság, autóbusz-forduló",47.926609,19.137996,1,
4690,"Tamási, vasútállomás",46.627919,18.290033,1,
4720,"Gyönk, autóbusz-állomás",46.557629,18.477814,1,
4740,"Hőgyész, autóbusz-váróterem",46.496516,18.417696,1,
4896,"Tolna, Szent István tér",46.422998,18.789787,1,
4990,"Simontornya, autóbusz-váróterem",46.753728,18.554897,1,
4993,"Simontornya, vasútállomás",46.756462,18.541118,1,
5018,"Szekszárd, autóbusz-állomás",46.349347,18.711329,1,
5150,"Berettyóújfalu, autóbusz-állomás",47.222392,21.533536,1,
5172,"Biharkeresztes, vasútállomás",47.134954,21.721987,1,
5189,"Hajdúböszörmény, Kálvin tér",47.668964,21.513161,1,
519,"Baracska, vasúti megállóhely",47.297766,18.755573,1,
5263,"Debrecen, autóbusz-állomás",47.525470,21.618016,1,
53484,"Mór, autóbusz-állomás",47.369307,18.215791,1,
541,"Bicske, vasútállomás",47.484448,18.619233,1,
5428,"Hajdúszoboszló, autóbusz-állomás",47.450218,21.403393,1,
5567,"Létavértes, autóbusz-váróterem",47.380892,21.891278,1,
5661,"Polgár, autóbusz-váróterem",47.871421,21.114579,1,
572532,"Sirok, központ",47.930757,20.195141,,
572533,"Sirok, központ",47.931469,20.197061,,
572534,"Sirok, központ",47.931453,20.195015,,
572535,"Sirok, Nyírjes út (lakótelepi átjáró)",47.926166,20.190706,,
572536,"Sirok, Nyírjes út (lakótelepi átjáró)",47.926636,20.192327,,
572537,"Sirok, Dallapuszta",47.925871,20.147430,,
572538,"Sirok, Dallapuszta",47.925805,20.151008,,
572539,"Recsk, Kőbánya bejárati út",47.932366,20.120438,,
572540,"Recsk, Kőbánya bejárati út",47.932469,20.119925,,
572541,"Recsk, mátraderecskei elágazás",47.935604,20.109624,,
572542,"Recsk, mátraderecskei elágazás",47.935633,20.109946,,
572543,"Recsk, mátraderecskei elágazás",47.935867,20.108844,,
572544,"Recsk, mátraderecskei elágazás",47.936069,20.108555,,
572545,"Recsk, OTP",47.932103,20.104942,,
572546,"Recsk, OTP",47.932079,20.105078,,
572547,"Recsk, Kossuth Lajos út 45.",47.929994,20.098760,,
572548,"Recsk, Kossuth Lajos út 45.",47.930062,20.099002,,
572549,"Parád, parádóhutai elágazás",47.922939,20.029959,,
572550,"Parád, parádóhutai elágazás",47.922971,20.030019,,
572551,"Parádóhuta, templom",47.908005,20.022066,,
572552,"Parádóhuta, templom",47.907996,20.022124,,
572553,"Parádóhuta, harangláb",47.904374,20.019713,,
572554,"Parádóhuta, harangláb",47.904359,20.019769,,
572555,"Parád, központ",47.923572,20.027905,,
572556,"Parád, központ",47.923100,20.029623,,
572557,"Parád, bodonyi elágazás",47.924405,20.026533,,
572558,"Parád, bodonyi elágazás",47.924769,20.026312,,
572559,"Bodony, újtelep",47.938822,20.023904,,
572560,"Bodony, újtelep",47.938664,20.023897,,
572561,"Bodony, italbolt",47.942781,20.022982,,
572564,"Eger, Mester utca",47.910588,20.357196,,
572565,"Eger, Mester utca",47.910194,20.357908,,
572566,"Eger, keverőtelep",47.915651,20.346513,,
572567,"Eger, keverőtelep",47.915256,20.347427,,
572568,"Eger, Töviskesvölgy",47.920515,20.324674,,
572569,"Eger, Töviskesvölgy",47.919300,20.325007,,
572570,"Egerbakta, tető",47.920916,20.318081,,
572571,"Egerbakta, tető",47.920643,20.319050,,
572572,"Egerbakta, Egri út 14.",47.927967,20.299788,,
572573,"Egerbakta, Egri út 14.",47.927567,20.300070,,
572574,"Egerbakta, autóbusz-váróterem",47.933313,20.292065,,
572575,"Egerbakta, autóbusz-váróterem",47.933275,20.291962,,
572576,"Egerbakta, Rábcavölgyi erdészház",47.929460,20.258770,,
572577,"Egerbakta, Rábcavölgyi erdészház",47.929381,20.259155,,
572578,"Sirok, Rozsnoki-völgy",47.936367,20.233998,,
572579,"Sirok, Rozsnoki-völgy",47.936293,20.234819,,
572580,"Sirok, Széchenyi út 112.",47.934060,20.205872,,
572581,"Sirok, Széchenyi út 112.",47.934116,20.206440,,
572582,"Recsk, Kőbánya lakótelep",47.929729,20.122985,,
572584,"Recsk-Parádfürdő, vasútállomás",47.931418,20.106253,,
572585,"Recsk, ércbánya bejárati út",47.926164,20.086692,,
572587,"Recsk, ércbánya bejárati út",47.926183,20.087269,,
572588,"Parádfürdő, kórház",47.925748,20.058857,,
572589,"Parádfürdő, kórház",47.925762,20.059058,,
572590,"Parád, alsó",47.923415,20.049558,,
572591,"Parád, alsó",47.923328,20.050103,,
572592,"Parád, Gyopár",47.923808,20.042641,,
572593,"Parád, Gyopár",47.923721,20.042077,,
572594,"Parád, Fáy iskola",47.923289,20.035294,,
572595,"Parád, Fáy iskola",47.923261,20.035921,,
572596,"Parád, felső",47.924068,20.020858,,
572597,"Parád, felső",47.924025,20.020989,,
572598,"Parád, fényespusztai elágazás",47.917630,19.994264,,
572599,"Parád, fényespusztai elágazás",47.918088,19.994679,,
572600,Parádsasvári elágazás,47.913311,19.987921,,
572601,Parádsasvári elágazás,47.913502,19.988541,,
572604,"Parádsasvár, Csevice",47.912311,19.985536,,
572605,"Parádsasvár, Csevice",47.912674,19.984601,,
572606,"Parádsasvár, községháza",47.910923,19.974720,,
572607,"Mátraháza, Vörösmarty turistaház",47.882685,19.977502,,
572608,"Mátraháza, Vörösmarty turistaház",47.882994,19.977512,,
572610,"Mátraderecske, Háromhányás tanya",47.943669,20.102427,,
572611,"Mátraderecske, Háromhányás tanya",47.943642,20.102713,,
572612,"Mátraderecske, Petőfi Sándor út 35.",47.947654,20.090030,,
572613,"Mátraderecske, Petőfi Sándor út 35.",47.947476,20.090598,,
572614,"Mátraderecske, piactér",47.950368,20.080822,,
572615,"Mátraderecske, piactér",47.950368,20.081191,,
572616,"Mátraderecske, Rákóczi Tsz.",47.952477,20.073190,,
572617,"Mátraderecske, Rákóczi Tsz.",47.952337,20.073465,,
572618,"Mátraballa, Fő út 27.",47.981238,20.025428,,
572619,"Mátraballa, Fő út 27.",47.981049,20.026026,,
572620,"Mátraballa, Fő út 83.",47.983712,20.020282,,
572621,"Mátraballa, Fő út 83.",47.983640,20.020238,,
572622,"Mátraballa, vasútállomás",47.984103,20.024398,,
572623,"Mátraballa, Fő út 131.",47.990404,20.015219,,
572624,"Mátraballa, Fő út 131.",47.990229,20.015350,,
572625,Mátraballai elágazás,48.009346,20.007384,,
572626,Mátraballai elágazás,48.010150,20.009045,,
572627,Mátraballai elágazás,48.009245,20.008223,,
572628,"Ivád, bejárati út",48.016888,20.063522,,
572629,"Ivád, bejárati út",48.016970,20.063524,,
572631,"Ivád, kisbolt",48.018497,20.061912,,
572632,"Ivád, kisbolt",48.018494,20.061851,,
572633,"Pétervására, városháza",48.017815,20.102900,,
572634,"Pétervására, városháza",48.017817,20.103250,,
572635,"Kisfüzes, Dózsa György út 35.",47.989679,20.130220,,
572636,"Kisfüzes, Dózsa György út 35.",47.989676,20.130404,,
572637,"Kisfüzes, Dózsa György út 6.",47.988346,20.126989,,
572638,"Kisfüzes, Dózsa György út 6.",47.988316,20.127005,,
572640,"Pétervására, Kossuth út 46.",48.024419,20.102044,,
572641,"Pétervására, Kossuth út 46.",48.024320,20.101877,,
572642,"Erdőkövesd, Hunyadi út 18.",48.033214,20.103796,,
572643,"Erdőkövesd, Hunyadi út 18.",48.033033,20.103823,,
572644,"Erdőkövesd, váraszói elágazás",48.041558,20.101943,,
572645,"Erdőkövesd, váraszói elágazás",48.040466,20.102519,,
572646,"Erdőkövesd, váraszói elágazás",48.041101,20.103036,,
572647,"Istenmezeje, újbánya bejárati út",48.069595,20.069508,,
572648,"Istenmezeje, újbánya bejárati út",48.069734,20.069185,,
572649,"Istenmezeje, újsor",48.076927,20.064608,,
572650,"Istenmezeje, újsor",48.076564,20.065088,,
572651,"Istenmezeje, Dózsa út",48.079525,20.057053,,
572652,"Istenmezeje, Dózsa út",48.079349,20.057432,,
572653,"Istenmezeje, központ",48.083899,20.052183,,
572654,"Istenmezeje, központ",48.082911,20.052321,,
572655,"Istenmezeje, Szárazág",48.095125,20.045595,,
572656,"Istenmezeje, Szárazág",48.095365,20.045353,,
572657,"Istenmezeje (Szederkénypuszta), alsó",48.116118,20.050093,,
572658,"Istenmezeje (Szederkénypuszta), alsó",48.115621,20.050201,,
572659,"Istenmezeje (Szederkénypuszta), italbolt",48.119811,20.048917,,
572660,"Istenmezeje (Szederkénypuszta), italbolt",48.119392,20.048683,,
572661,"Váraszó, faluszéle",48.053605,20.109299,,
572662,"Váraszó, faluszéle",48.053087,20.109567,,
572663,"Váraszó, községháza",48.058291,20.112192,,
572664,"Váraszó, községháza",48.058321,20.112076,,
572667,"Terpes, italbolt",47.972113,20.152054,,
572668,"Terpes, italbolt",47.972317,20.152256,,
572669,"Szajla, bükkszéki elágazás",47.965141,20.156295,,
572670,"Szajla, bükkszéki elágazás",47.965675,20.155259,,
572671,"Szajla, bükkszéki elágazás",47.966036,20.156293,,
572672,"Sirok, Petőfi út 80.",47.936977,20.188195,,
572673,"Sirok, Petőfi út 80.",47.937175,20.188074,,
572675,"Eger, Baktai út",47.905627,20.363526,,
572680,"Eger, egerszóláti elágazás",47.886490,20.351094,,
572681,"Eger, egerszóláti elágazás",47.886371,20.350753,,
572682,"Eger, Rózsás dűlő",47.888166,20.341878,,
572683,"Eger, Rózsás dűlő",47.888139,20.342285,,
572684,"Egerszalók, víztározó",47.886128,20.317835,,
572685,"Egerszalók, víztározó",47.886209,20.318549,,
572686,"Egerszalók, víztározó",47.885932,20.318251,,
572687,"Egerszólát, tanya",47.882509,20.280131,,
572688,"Egerszólát, tanya",47.883344,20.279562,,
572689,"Egerszólát, községháza",47.889954,20.268335,,
572690,"Egerszólát, községháza",47.889914,20.268332,,
572691,"Tarnaszentmária, templom",47.876948,20.201048,,
572692,"Tarnaszentmária, templom",47.876919,20.201089,,
572693,"Sirok (Kőkútpuszta), liszkói elágazás",47.900946,20.179288,,
572694,"Sirok (Kőkútpuszta), liszkói elágazás",47.899972,20.179360,,
572695,"Sirok (Kőkútpuszta), liszkói elágazás",47.900431,20.180023,,
572696,"Sirok, vasúti megállóhely",47.915827,20.177329,,
572697,"Sirok, vasúti megállóhely",47.915648,20.177302,,
572698,"Sirok, lakótelep",47.925369,20.194137,,
572699,"Sirok, lakótelep",47.925422,20.193991,,
572700,"Sirok (Liszkó), gyártelep",47.906665,20.205268,,
572701,"Sirok (Liszkó), gyártelep",47.906695,20.205307,,
572702,"Bükkszék, községháza",47.988461,20.174894,,
572703,"Bükkszék, községháza",47.988125,20.174953,,
572704,"Bükkszék, gyógyfürdő",47.993430,20.173277,,
572707,"Bükkszék, Camping",47.993647,20.181797,,
572708,"Bükkszék, Camping",47.993142,20.181159,,
572709,"Bükkszék, felső bejárati út",47.999084,20.182812,,
572710,"Bükkszék, felső bejárati út",47.999120,20.183680,,
572712,"Váraszó, beniczkytanyai elágazás",48.036672,20.124375,,
572713,"Váraszó, beniczkytanyai elágazás",48.036689,20.124320,,
572714,Váraszói elágazás,48.043785,20.136217,,
572715,Váraszói elágazás,48.043818,20.136183,,
572716,"Bükkszenterzsébet, Daracs-patak",48.051500,20.156086,,
572717,"Bükkszenterzsébet, Daracs-patak",48.051179,20.155564,,
572718,"Bükkszenterzsébet, autóbusz-váróterem",48.055234,20.165088,,
572719,"Bükkszenterzsébet, autóbusz-váróterem",48.055203,20.165244,,
572721,"Fedémes, Kutos tanya",48.042986,20.185229,,
572722,"Fedémes, Kutos tanya",48.043018,20.185266,,
572723,"Fedémes, autóbusz-váróterem",48.034256,20.192019,,
572724,"Fedémes, autóbusz-váróterem",48.034271,20.192298,,
572725,"Fedémes, italbolt",48.030815,20.184161,,
572726,"Fedémes, italbolt",48.030803,20.184219,,
572727,"Tarnalelesz, központ",48.058032,20.183562,,
572728,"Tarnalelesz, központ",48.057579,20.182930,,
572729,"Tarnalelesz, szúcsi elágazás",48.062143,20.190148,,
572730,"Tarnalelesz, szúcsi elágazás",48.061317,20.190153,,
572731,"Tarnalelesz, szúcsi elágazás",48.061048,20.188585,,
572732,"Szentdomonkos, autóbusz-váróterem",48.068257,20.199269,,
572733,"Szentdomonkos, autóbusz-váróterem",48.068214,20.199070,,
572734,"Szentdomonkos, Tipászó",48.079690,20.211243,,
572735,"Szentdomonkos, Tipászó",48.079661,20.210854,,
572738,"Szúcs, bányatelep",48.056127,20.228100,,
572739,"Szúcs, bányatelep",48.056684,20.226537,,
572740,"Szúcs, bejárati út",48.043102,20.245677,,
572741,"Szúcs, bejárati út",48.043095,20.245877,,
572742,"Szúcs, italbolt",48.046109,20.247864,,
572743,"Szúcs, italbolt",48.046047,20.247794,,
572744,"Egercsehi (Bányatelep), autóbusz-váróterem",48.054544,20.255375,,
572745,"Egerbocs, Alkotmány út 114.",48.031992,20.255598,,
572746,"Egerbocs, Alkotmány út 114.",48.031976,20.255667,,
572748,"Egerbocs, iskola",48.026612,20.259318,,
572749,"Egerbocs, iskola",48.026641,20.259359,,
572750,"Egerbocs, tanya",48.016227,20.263055,,
572751,"Egerbocs, tanya",48.016703,20.262791,,
572752,"Bátor, Kisbátori tanya",48.002344,20.271416,,
572753,"Bátor, Kisbátori tanya",48.002596,20.271371,,
572754,"Bátor, hevesaranyosi elágazás",47.990954,20.265883,,
572755,"Bátor, hevesaranyosi elágazás",47.990870,20.265257,,
572756,"Bátor, hevesaranyosi elágazás",47.990943,20.265941,,
572757,"Bátor, hevesaranyosi elágazás",47.990828,20.265454,,
572758,"Bátor, Hunyadi János út 58.",47.993897,20.258579,,
572759,"Bátor, Hunyadi János út 58.",47.993880,20.258525,,
572760,"Hevesaranyos, újtelep",48.007636,20.239846,,
572761,"Hevesaranyos, újtelep",48.007597,20.239828,,
572762,"Hevesaranyos, autóbusz-váróterem",48.008967,20.233255,,
572764,"Bátor, bátori elágazás",47.967564,20.266662,,
572765,"Bátor, bátori elágazás",47.967596,20.266551,,
572766,"Bükkszék, Nagyaszói tanya",47.984137,20.229081,,
572767,"Bükkszék, Nagyaszói tanya",47.984100,20.229056,,
572768,"Egerbakta, újtelep",47.937671,20.290318,,
572769,"Egerbakta, újtelep",47.937876,20.290295,,
572770,"Egerszalók, Templom-bérc",47.876526,20.326986,,
572771,"Egerszalók, Templom-bérc",47.875473,20.327293,,
572772,"Egerszalók, központ",47.870787,20.325296,,
572773,"Egerszalók, központ",47.870823,20.325937,,
572774,"Egerszalók, központ",47.871066,20.326130,,
572775,"Egerszalók, Széchenyi István út",47.865366,20.317951,,
572776,"Egerszalók, Széchenyi István út",47.865182,20.318048,,
572777,"Verpelét, Újtelep",47.847959,20.237610,,
572778,"Verpelét, Újtelep",47.848282,20.236549,,
572781,"Verpelét, Szabadság tér",47.846899,20.225521,,
572782,"Verpelét, Szabadság tér",47.846357,20.225794,,
572787,"Verpelét, Vasút út",47.853548,20.214744,,
572788,"Verpelét, Vasút út",47.853658,20.215135,,
572789,"Verpelét, tarnaszentmáriai elágazás",47.852628,20.211824,,
572791,"Eger, Bartakovics út",47.904756,20.366611,,
572792,"Eger, Bartakovics út",47.903904,20.366495,,
572793,"Eger, Kővágó tér",47.915530,20.369973,,
572794,"Eger, Kővágó tér",47.914382,20.369881,,
572796,"Eger, Shell kút",47.919711,20.369551,,
572797,"Eger, Shell kút",47.920522,20.369234,,
572798,"Eger, Nagylapos",47.925282,20.368954,,
572799,"Eger, Nagylapos",47.924995,20.368770,,
572800,"Eger (Felnémet), felsőtárkányi elágazás",47.933922,20.368087,,
572801,"Eger (Felnémet), felsőtárkányi elágazás",47.935043,20.367757,,
572802,"Eger, Almár vasúti megállóhely",47.955917,20.357362,,
572803,"Eger, Almár vasúti megállóhely",47.955221,20.357808,,
572804,"Almár, hobbi telkek",47.978676,20.342756,,
572805,"Almár, hobbi telkek",47.978319,20.342504,,
572806,"Szarvaskő, újtelep",47.986927,20.336901,,
572807,"Szarvaskő, újtelep",47.986954,20.337207,,
572808,"Szarvaskő, központ",47.988175,20.330604,,
572809,"Szarvaskő, központ",47.988105,20.330474,,
572810,Mónosbéli elágazás,47.993721,20.321561,,
572811,Mónosbéli elágazás,47.993593,20.321939,,
572812,"Egercsehi, Villói tanya",48.035371,20.281198,,
572813,"Egercsehi, Villói tanya",48.035070,20.281389,,
572814,"Egercsehi, bekölcei elágazás",48.044132,20.271014,,
572815,"Egercsehi, bekölcei elágazás",48.044779,20.271256,,
572816,"Egercsehi, bekölcei elágazás",48.043427,20.272129,,
572817,"Egercsehi, Egri út 67.",48.046668,20.261326,,
572818,"Egercsehi, Egri út 67.",48.046285,20.261745,,
572820,"Egercsehi (Bányatelep), iskola",48.057337,20.257667,,
572821,"Egercsehi, Csónak út",48.064064,20.262960,,
572822,"Egercsehi, Csónak út",48.064005,20.262849,,
572823,"Egercsehi, falu",48.052657,20.268739,,
572824,"Egercsehi, falu",48.052519,20.268876,,
572825,"Bekölce, központ",48.080014,20.273174,,
572826,"Bekölce, központ",48.079340,20.274107,,
572827,"Bekölce, központ",48.079954,20.275077,,
572828,"Bekölce, Akác úti átjáró",48.079581,20.266747,,
572829,"Bekölce, Akác úti átjáró",48.079590,20.266969,,
572830,"Bekölce, autóbusz-forduló",48.080287,20.254727,,
572831,"Bekölce, autóbusz-forduló",48.080188,20.254970,,
572832,"Bekölce, lovastanya",48.080988,20.251982,,
572833,"Bekölce, lovastanya",48.081145,20.251696,,
572834,"Borsodnádasd, temető",48.121251,20.236230,,
572835,"Borsodnádasd, temető",48.121316,20.236680,,
572836,"Borsodnádasd, Petőfi tér forduló",48.105444,20.264247,,
572837,"Balaton, Kossuth Lajos út 163.",48.105823,20.303618,,
572838,"Balaton, Kossuth Lajos út 163.",48.105844,20.303640,,
572840,"Balaton, felső",48.100935,20.306097,,
572841,"Balaton, felső",48.101073,20.306013,,
572842,"Balaton, autóbusz-váróterem",48.092332,20.306711,,
572843,"Balaton, autóbusz-váróterem",48.092329,20.306651,,
572844,"Balaton, alsó",48.086994,20.313443,,
572845,"Balaton, alsó",48.086851,20.313589,,
572847,Bükkszentmártoni elágazás,48.069061,20.322515,,
572848,Bükkszentmártoni elágazás,48.068267,20.322329,,
572849,Bükkszentmártoni elágazás,48.069006,20.321682,,
572850,"Bükkszentmárton, Rákóczi út 39.",48.071210,20.329238,,
572851,"Bükkszentmárton, Rákóczi út 39.",48.071143,20.328963,,
572852,"Bükkszentmárton, autóbusz-forduló",48.072300,20.335524,,
572853,Bélapátfalvai elágazás,48.058754,20.329226,,
572854,Bélapátfalvai elágazás,48.059068,20.329778,,
572856,"Mikófalva, faluszéle",48.056857,20.329933,,
572857,"Mikófalva, faluszéle",48.056829,20.330067,,
572860,"Mikófalva, posta",48.056211,20.325007,,
572861,"Mikófalva, posta",48.056146,20.325087,,
572862,"Mikófalva, községháza",48.056570,20.316353,,
572863,"Mikófalva, községháza",48.056417,20.316196,,
572864,"Mikófalva, Széchenyi út 38.",48.058801,20.313064,,
572865,"Mikófalva, Széchenyi út 38.",48.058801,20.313003,,
572866,Pusztaördögfalvi tanya,48.072476,20.302577,,
572867,Pusztaördögfalvi tanya,48.072618,20.302115,,
572868,"Bélapátfalva, vasútállomás elágazás",48.056128,20.343581,,
572869,"Bélapátfalva, vasútállomás elágazás",48.056235,20.343720,,
572870,"Bélapátfalva, Május 1 út 4.",48.053066,20.348240,,
572871,"Bélapátfalva, Május 1 út 4.",48.053093,20.348285,,
572872,"Bélapátfalva, vásártér",48.048801,20.343353,,
572873,"Bélapátfalva, vásártér",48.049352,20.344525,,
572874,"Bélapátfalva, városháza",48.055032,20.350607,,
572875,"Bélapátfalva, városháza",48.054878,20.350326,,
572876,"Bélapátfalva, egészségház",48.059784,20.353355,,
572877,"Bélapátfalva, egészségház",48.058845,20.352977,,
572878,"Bélapátfalva, ipari park",48.068335,20.356646,,
572879,"Bélapátfalva, ipari park",48.066724,20.355994,,
572880,"Szilvásvárad, Camping",48.096262,20.385340,,
572881,"Szilvásvárad, Camping",48.096120,20.384994,,
572882,"Szilvásvárad, szalajkavölgyi elágazás",48.099623,20.390286,,
572883,"Szilvásvárad, szalajkavölgyi elágazás",48.099304,20.390447,,
572884,"Szilvásvárad, Miskolci út 28.",48.105660,20.388244,,
572885,"Szilvásvárad, Miskolci út 28.",48.105270,20.388469,,
572886,"Szilvásvárad, vasútállomás bejárati út",48.111235,20.381051,,
572887,"Szilvásvárad, vasútállomás bejárati út",48.111026,20.380981,,
572888,"Bükkmogyorósd, autóbusz-váróterem",48.128762,20.354718,,
572889,"Bükkmogyorósd, autóbusz-váróterem",48.129331,20.354829,,
572890,"Szilvásvárad, Miskolci út 144.",48.111994,20.390507,,
572891,"Szilvásvárad, Miskolci út 144.",48.112125,20.390532,,
572892,"Szilvásvárad, Szána-völgy",48.125970,20.398595,,
572893,"Szilvásvárad, Szána-völgy",48.125578,20.397363,,
572894,"Nagyvisnyó, Fő út 26.",48.139868,20.424828,,
572895,"Nagyvisnyó, Fő út 26.",48.139944,20.425147,,
572896,"Nagyvisnyó, Fő út 103.",48.141383,20.437671,,
572897,"Nagyvisnyó, ifjúsági tábor bejárati út",48.146494,20.450352,,
572898,"Nagyvisnyó, ifjúsági tábor bejárati út",48.146064,20.450235,,
572899,"Mónosbél, Béke utca",48.035934,20.330043,,
572900,"Mónosbél, Béke utca",48.036254,20.329865,,
572901,"Mónosbél, vasútállomás",48.031364,20.330036,,
572902,"Mónosbél, vasútállomás",48.031584,20.330181,,
572903,"Mónosbél, tardosi kőbányák",48.010484,20.328057,,
572904,"Mónosbél, tardosi kőbányák",48.010624,20.328302,,
572905,"Szarvaskő (Barátkert), Tardosi sporttábor",48.002551,20.319518,,
572906,"Szarvaskő (Barátkert), Tardosi sporttábor",48.002787,20.319512,,
572907,"Eger (Felnémet), Tárkányi út",47.939402,20.372510,,
572908,"Eger (Felnémet), Tárkányi út",47.938832,20.371660,,
572909,"Eger (Felnémet), vállalkozói park",47.946337,20.381250,,
572910,"Eger (Felnémet), vállalkozói park",47.946051,20.380892,,
572911,"Felsőtárkány, Fő út 8",47.961956,20.401123,,
572912,"Felsőtárkány, Fő út 8",47.961676,20.400742,,
572913,"Felsőtárkány, mészégető",47.965615,20.405737,,
572914,"Felsőtárkány, mészégető",47.965239,20.405262,,
572915,"Felsőtárkány, autóbusz-váróterem",47.972844,20.415404,,
572916,"Felsőtárkány, autóbusz-váróterem",47.972689,20.415136,,
572917,"Felsőtárkány, Fő út 324",47.977343,20.425895,,
572918,"Felsőtárkány, Fő út 324",47.977306,20.425916,,
572919,"Felsőtárkány, fűtőház",47.979965,20.431974,,
572920,"Felsőtárkány, fűtőház",47.979572,20.431524,,
572921,"Felsőtárkány, Csárda",47.983020,20.435683,,
572922,"Felsőtárkány, Csárda",47.983085,20.435657,,
572923,"Felsőtárkány, barátvölgyi rom",47.992732,20.460025,,
572924,"Felsőtárkány, barátvölgyi rom",47.992662,20.459854,,
572925,"Felsőtárkány, Tamás kútja",48.041619,20.486972,,
572926,"Felsőtárkány, Tamás kútja",48.041499,20.486714,,
572927,"Répáshuta, megyehatár",48.042349,20.492466,,
572928,"Répáshuta, megyehatár",48.042389,20.492460,,
572930,"Eger (Felnémet), Sánc út",47.941386,20.374880,,
572931,"Eger (Felnémet), Sánc út",47.941754,20.375497,,
572932,"Eger, Egyetem",47.899437,20.375945,,
572933,"Eger, Egyetem",47.899324,20.375320,,
572934,"Eger, uszoda",47.899078,20.382729,,
572935,"Eger, Gárdonyi ház",47.906116,20.381201,,
572936,"Eger, Gárdonyi ház",47.905909,20.381079,,
572937,"Eger, Egervár vasúti megállóhely",47.908410,20.382259,,
572938,"Eger, Egervár vasúti megállóhely",47.908128,20.381517,,
572939,"Eger, Vécsey-völgy",47.911025,20.394427,,
572940,"Eger, Vécsey-völgy",47.911052,20.393790,,
572941,"Eger, lovastanya",47.912694,20.407018,,
572942,"Eger, lovastanya",47.912684,20.406959,,
572943,"Eger, Csomós-tanya",47.916766,20.413175,,
572944,"Eger, Csomós-tanya",47.916802,20.412527,,
572945,"Eger, Nagy-Eged-dűlő",47.922132,20.426690,,
572946,"Eger, Nagy-Eged-dűlő",47.922165,20.426656,,
572947,"Eger, szőlőcskei elágazás",47.928330,20.440291,,
572948,"Eger, szőlőcskei elágazás",47.928361,20.440252,,
572949,"Eger, szőlőcskei rakodó",47.935415,20.444954,,
572950,"Eger, szőlőcskei rakodó",47.935320,20.444827,,
572951,"Noszvaj, várhegyi elágazás",47.945927,20.457144,,
572952,"Noszvaj, várhegyi elágazás",47.945996,20.455672,,
572953,"Noszvaj, síkfőkúti elágazás",47.945357,20.466592,,
572954,"Noszvaj, síkfőkúti elágazás",47.945424,20.466027,,
572955,"Noszvaj, Kossuth út 83.",47.939885,20.474568,,
572956,"Noszvaj, Kossuth út 83.",47.938969,20.476592,,
572957,"Noszvaj, faluközpont",47.935443,20.476185,,
572958,"Noszvaj, faluközpont",47.935603,20.476201,,
572959,"Noszvaj, de la Motte-kastély",47.933143,20.473946,,
572960,"Noszvaj, de la Motte-kastély",47.933167,20.473994,,
572961,"Noszvaj, Szomolyai út 24.",47.928803,20.477686,,
572962,"Noszvaj, Szomolyai út 24.",47.929259,20.477672,,
572963,"Noszvaj, Oxigén Hotel",47.915877,20.481423,,
572964,"Noszvaj, Oxigén Hotel",47.916121,20.481541,,
572965,"Noszvaj, Deák Ferenc út 77.",47.930700,20.482756,,
572966,"Noszvaj, Deák Ferenc út 77.",47.930839,20.482568,,
572967,"Bogács, gyógyfürdő",47.908110,20.529783,,
572968,"Bogács, gyógyfürdő",47.907847,20.529218,,
572969,"Bogács, gyógyfürdő",47.907832,20.528733,,
572970,"Noszvaj, Béke út 34.",47.942905,20.473062,,
572971,"Noszvaj, Bükk Panzió",47.946720,20.469319,,
572972,"Noszvaj, Síkfőkút Hotel",47.947964,20.463065,,
572973,"Eger, Szarvas tér",47.901157,20.382343,,
572976,"Eger, Homok utca",47.891513,20.391852,,
572977,"Eger, Homok utca",47.891645,20.391758,,
572978,"Eger, Tihamér lakótelep",47.889953,20.397060,,
572979,"Eger, Tihamér lakótelep",47.889670,20.395680,,
572980,"Ostoros, Damjanich János utca",47.872030,20.422940,,
572981,"Ostoros, Damjanich János utca",47.872619,20.422153,,
572982,"Ostoros, Akácfa utca",47.868476,20.427656,,
572983,"Ostoros, Akácfa utca",47.868679,20.427462,,
572984,"Ostoros, ABC",47.863756,20.435432,,
572985,"Ostoros, ABC",47.864081,20.435345,,
572986,"Ostoros, Mezőkövesdi út",47.860420,20.436255,,
572987,"Ostoros, Mezőkövesdi út",47.861294,20.436261,,
572988,"Novaj, Hermánytető",47.857577,20.459283,,
572989,"Novaj, Hermánytető",47.857612,20.459254,,
572990,"Novaj, pincék",47.859412,20.471655,,
572991,"Novaj, pincék",47.859534,20.471869,,
572992,"Novaj, központ",47.855830,20.478683,,
572993,"Novaj, központ",47.856048,20.478477,,
572995,"Szentistván, autóbusz-váróterem",47.773776,20.659912,,
572996,"Szentistván, autóbusz-váróterem",47.774589,20.658285,,
572997,"Mezőkeresztes, Szentistváni utca",47.815554,20.682099,,
572998,"Mezőnyárád, posta",47.863813,20.678879,,
572999,"Mezőnyárád, posta",47.863947,20.678946,,
573000,"Mezőkövesd, Váci Mihály utca",47.808818,20.550637,,
573001,"Mezőkövesd, Váci Mihály utca",47.808439,20.551967,,
573002,"Andornaktálya, szociális otthon",47.838265,20.415534,,
573003,"Andornaktálya, szociális otthon",47.838025,20.415666,,
573004,"Andornaktálya, Szent András kápolna",47.844680,20.412219,,
573005,"Andornaktálya, Szent András kápolna",47.844490,20.412291,,
573006,"Andornaktálya, községháza",47.850119,20.410471,,
573007,"Andornaktálya, községháza",47.850337,20.410426,,
573008,"Andornaktálya, iskola",47.858853,20.406782,,
573009,"Andornaktálya, iskola",47.858848,20.406722,,
573010,"Andornaktálya, tórét",47.864887,20.407028,,
573011,"Andornaktálya, tórét",47.864944,20.406978,,
573012,"Eger, Kistályai út",47.868784,20.404958,,
573013,"Eger, Kistályai út",47.869133,20.404989,,
573014,"Eger, Erzsébet-völgy",47.875543,20.401273,,
573015,"Eger, Erzsébet-völgy",47.875556,20.401151,,
573016,"Eger, Losonczy-völgy",47.878209,20.400254,,
573017,"Eger, Losonczy-völgy",47.877838,20.400207,,
573018,"Eger, SCHÖN KAEV Kft.",47.880288,20.399442,,
573019,"Eger, SCHÖN KAEV Kft.",47.880286,20.399321,,
573020,"Eger, ZF Hungária kft.",47.886260,20.397529,,
573021,"Eger, ZF Hungária kft.",47.885350,20.397754,,
573024,"Eger, színház",47.898101,20.374534,,
573025,"Eger, színház",47.896362,20.374989,,
573026,"Egerszalók, Ady Endre út",47.865684,20.326893,,
573027,"Egerszalók, Ady Endre út",47.866167,20.326610,,
573028,"Demjén, Petőfi Sándor utca 2.",47.834206,20.335705,,
573029,"Demjén, Petőfi Sándor utca 2.",47.834906,20.335856,,
573030,"Demjén, központ",47.829609,20.333438,,
573031,"Demjén, központ",47.829515,20.333270,,
573032,"Demjén, Széchenyi István út 68.",47.825218,20.333174,,
573033,"Demjén, Széchenyi István út 68.",47.825692,20.333163,,
573034,"Demjén, Albertmajor",47.809134,20.340005,,
573035,"Demjén, Albertmajor",47.808933,20.340143,,
573036,"Kerecsend, Fő utca 60.",47.797038,20.347286,,
573037,"Kerecsend, Fő utca 60.",47.796425,20.346940,,
573038,"Kerecsend, Fő utca 60.",47.796697,20.345971,,
573039,"Kerecsend, Fő utca 60.",47.797467,20.346237,,
573042,"Tófalu, kisbolt",47.775138,20.237155,,
573043,"Tófalu, kisbolt",47.774805,20.237427,,
573044,"Aldebrő, iskola",47.782863,20.236114,,
573045,"Aldebrő, iskola",47.782604,20.236192,,
573046,"Aldebrő, községháza",47.788586,20.230279,,
573047,"Aldebrő, községháza",47.787935,20.230021,,
573048,"Aldebrő, újfalu",47.796676,20.227695,,
573049,"Aldebrő, újfalu",47.797251,20.227889,,
573050,"Feldebrő, vécsi elágazás",47.811589,20.228854,,
573051,"Feldebrő, vécsi elágazás",47.811478,20.228756,,
573058,"Vécs, Kossuth Lajos út 2.",47.804281,20.169824,,
573059,"Vécs, Kossuth Lajos út 2.",47.804310,20.169783,,
573060,"Feldebrő, községháza",47.814915,20.232283,,
573061,"Feldebrő, községháza",47.814761,20.232347,,
573062,"Feldebrő, Kossuth út 120.",47.820965,20.231109,,
573063,"Feldebrő, Kossuth út 120.",47.820806,20.231103,,
573064,"Verpelét, temető",47.839128,20.229921,,
573065,"Verpelét, temető",47.838738,20.230022,,
573067,"Verpelét, tésztagyár",47.850438,20.204202,,
573068,"Verpelét, tésztagyár",47.850677,20.205081,,
573069,"Kisnána, Kistölgyesi erdészház",47.850090,20.171123,,
573070,"Kisnána, Kistölgyesi erdészház",47.850015,20.171229,,
573072,"Kerecsend, Füzesabonyi út 75.",47.790377,20.352714,,
573073,"Kerecsend, Füzesabonyi út 75.",47.790740,20.352313,,
573076,"Kerecsend, Fő út 150.",47.794375,20.339008,,
573077,"Kerecsend, Fő út 150.",47.794167,20.338099,,
573078,"Kápolna, Dembinszky út",47.759356,20.246109,,
573079,"Kápolna, Dembinszky út",47.759225,20.246298,,
573080,"Kompolt, kutatóintézet",47.758348,20.189798,,
573081,"Kompolt, kutatóintézet",47.758560,20.190684,,
573083,"Detk, detki elágazás",47.742772,20.087681,,
573084,"Detk, detki elágazás",47.742932,20.088058,,
573092,"Füzesabony, TÜZÉP",47.739250,20.410468,,
573093,"Füzesabony, TÜZÉP",47.738590,20.410761,,
573094,"Füzesabony, vasútállomás bejárati út",47.746692,20.410095,,
573095,"Füzesabony, vasútállomás bejárati út",47.745738,20.409288,,
573096,"Füzesabony, vasútállomás bejárati út",47.745304,20.410147,,
573097,"Füzesabony, vasútállomás",47.750960,20.417709,,170
573099,"Füzesabony, Pikopack",47.760873,20.395150,,
573100,"Füzesabony, Pikopack",47.761126,20.394876,,
573101,"Füzesabony, Erősítő üzem",47.753466,20.404666,,
573102,"Füzesabony, Erősítő üzem",47.753369,20.405859,,
573103,"Füzesabony, Erősítő üzem",47.754272,20.404648,,
573104,"Füzesabony, II. sz. iskola",47.744511,20.420071,,
573106,"Füzesabony, vasúti aluljáró",47.752966,20.414939,,
573107,"Füzesabony, vasúti aluljáró",47.752663,20.414150,,
573108,"Füzesabony, DUROPACK",47.757701,20.426939,,
573109,"Füzesabony, DUROPACK",47.757735,20.426907,,
573110,"Szihalom, mezőszemerei elágazás",47.777290,20.477184,,
573111,"Szihalom, mezőszemerei elágazás",47.777607,20.476896,,
573112,"Szihalom, községháza",47.773506,20.482741,,
573113,"Szihalom, községháza",47.773660,20.482465,,
573116,"Szihalom, vasúti átjáró",47.767813,20.492589,,
573117,"Szihalom, vasúti átjáró",47.767840,20.492633,,
573118,"Mezőszemere, italbolt",47.750449,20.513973,,
573119,"Mezőszemere, italbolt",47.750891,20.513451,,
573120,"Mezőszemere, faluház",47.747530,20.519133,,
573121,"Mezőszemere, faluház",47.747731,20.518902,,
573122,"Mezőszemere, Rimahíd",47.740176,20.521320,,
573123,"Mezőszemere, Rimahíd",47.740584,20.521049,,
573124,"Egerfarmos, Dózsa György út 30.",47.721987,20.531555,,
573125,"Egerfarmos, Dózsa György út 30.",47.722166,20.531665,,
573126,"Egerfarmos, italbolt",47.718479,20.536726,,
573127,"Egerfarmos, italbolt",47.718615,20.536624,,
573128,"Egerfarmos, italbolt",47.719096,20.536024,,
573129,"Egerfarmos, italbolt",47.718937,20.536139,,
573130,"Egerfarmos, Rákóczi út 82.",47.716718,20.541709,,
573131,"Egerfarmos, Rákóczi út 82.",47.716755,20.541731,,
573132,"Mezőtárkány, faluközpont",47.720112,20.478707,,
573133,"Mezőtárkány, faluközpont",47.720636,20.477957,,
573136,"Mezőtárkány, Bagoly tér",47.723615,20.470408,,
573137,"Mezőtárkány, Bagoly tér",47.722736,20.471093,,
573138,"Dormánd, autóbusz-váróterem",47.719406,20.419531,,
573139,"Dormánd, autóbusz-váróterem",47.719711,20.419380,,
573140,"Besenyőtelek, kisbolt",47.706121,20.426587,,
573141,"Besenyőtelek, kisbolt",47.707059,20.426170,,
573142,"Besenyőtelek, központ",47.700769,20.427856,,
573143,"Besenyőtelek, központ",47.701230,20.427910,,
573144,"Besenyőtelek, poroszlói elágazás",47.694478,20.433434,,
573145,"Besenyőtelek, poroszlói elágazás",47.694888,20.433321,,
573146,"Kömlő, Bárczay-tanya",47.636725,20.433769,,
573147,"Kömlő, Bárczay-tanya",47.636711,20.433823,,
573148,"Kömlő, italbolt",47.604180,20.442288,,
573149,"Kömlő, italbolt",47.605195,20.441647,,
573150,"Kömlő, italbolt",47.604483,20.441018,,
573151,"Kömlő, Egri út 132.",47.598375,20.447351,,
573152,"Kömlő, Egri út 132.",47.598555,20.447202,,
573153,"Tiszanána, Ballók-tó",47.566159,20.515383,,
573154,"Tiszanána, Ballók-tó",47.566284,20.515098,,
573155,"Tiszanána, Fő tér",47.560163,20.525429,,
573156,"Tiszanána, Fő tér",47.560426,20.525205,,
573157,"Tiszanána, Fő tér",47.560507,20.525349,,
573158,"Tiszanána, Kálvin tér",47.553708,20.533484,,
573159,"Tiszanána, Kálvin tér",47.553528,20.533718,,
573160,"Kisköre, 2-es km-kő (3213. sz. út)",47.519036,20.505703,,
573161,"Kisköre, 2-es km-kő (3213. sz. út)",47.519764,20.506086,,
573162,"Kisköre, Kossuth Lajos út 50.",47.504831,20.494035,,
573163,"Kisköre, Kossuth Lajos út 50.",47.505152,20.494329,,
573164,"Kisköre, Tisza-híd",47.482596,20.505718,,
573165,"Kisköre, Tisza-híd",47.482737,20.505641,,
573168,"Kisköre, Erőmű",47.495813,20.511932,,
573170,"Tarnaszentmiklós, vasútállomás",47.546909,20.390025,,
573173,"Tarnaszentmiklós, pélyi elágazás",47.542783,20.384951,,
573174,"Tarnaszentmiklós, pélyi elágazás",47.542119,20.385295,,
573175,"Hevesvezekény, Fő út 12.",47.557684,20.363122,,
573176,"Hevesvezekény, Fő út 12.",47.557346,20.363335,,
573177,"Hevesvezekény, községháza",47.557052,20.355899,,
573178,"Hevesvezekény, községháza",47.557161,20.356934,,
573179,"Hevesvezekény, Fő út 78.",47.555368,20.349465,,
573180,"Hevesvezekény, Fő út 78.",47.555553,20.350699,,
573182,"Heves, Hősök tere",47.594297,20.288847,,
573183,"Heves, Hősök tere",47.594167,20.287298,,
573184,"Heves, autóbusz-állomás",47.593708,20.281006,,176
573186,"Heves, szociális otthon",47.590925,20.277257,,
573187,"Heves, szociális otthon",47.591100,20.277626,,
573188,"Heves, Pusztacsász",47.582229,20.263439,,
573189,"Heves, Pusztacsász",47.582687,20.264019,,
573190,"Heves, Állami Gazdaság bejárati út",47.575539,20.252705,,
573191,"Heves, Állami Gazdaság bejárati út",47.575365,20.252001,,
573192,"Heves, ÉMÁSZ",47.605240,20.287011,,
573193,"Heves, ÉMÁSZ",47.605132,20.287006,,
573194,"Heves, Gyöngyösi út 7-9.",47.610075,20.285949,,
573195,"Heves, Gyöngyösi út 7-9.",47.609343,20.286086,,
573196,"Heves, Hercegtag bejárati út",47.621576,20.263667,,
573197,"Heves, Hercegtag bejárati út",47.621611,20.263696,,
573198,"Heves, szőlők",47.628748,20.234199,,
573199,"Heves, szőlők",47.628420,20.234898,,
573200,"Heves, szőlők",47.628825,20.235069,,
573201,"Boconád, Béke út",47.639736,20.196998,,
573202,"Boconád, Béke út",47.639719,20.196913,,
573203,"Boconád, községháza",47.642954,20.186915,,
573204,"Boconád, községháza",47.642877,20.187580,,
573216,"Eger, Nagyváradi út",47.882992,20.381165,,
573217,"Eger, Nagyváradi út",47.883895,20.381232,,
573218,"Eger, Koháry út",47.893713,20.370887,,
573219,"Eger, Koháry út",47.893480,20.370849,,
573220,"Eger, Agria Park",47.899900,20.367284,,
573221,"Eger, Agria Park",47.898411,20.367438,,
573223,"Eger, vasútállomás bejárati út",47.892316,20.378092,,
573224,"Eger, vasútállomás bejárati út",47.890844,20.379745,,
573226,"Eger, vasútállomás bejárati út",47.892428,20.378260,,
573227,"Eger, Garzonház",47.912758,20.370291,,
573228,"Eger, Garzonház",47.911355,20.370333,,
573229,"Eger, vasútállomás",47.891630,20.381200,,87
573232,"Felnémet, Bervai út",47.949576,20.375670,,
573233,"Felnémet, Bervai út",47.949702,20.375606,,
573244,"Eger, Tompa utca",47.877190,20.382079,,
573245,"Eger, Tompa utca",47.876628,20.382373,,
573247,"Nagytálya, Kölcsey Ferenc út 33.",47.819282,20.417239,,
573248,"Nagytálya, Kölcsey Ferenc út 33.",47.819609,20.417442,,
573249,"Nagytálya, Petőfi Sándor utca 2.",47.814967,20.414568,,
573250,"Nagytálya, Petőfi Sándor utca 2.",47.815010,20.415376,,
573251,"Nagytálya, Petőfi Sándor utca 42.",47.814522,20.406575,,
573252,"Nagytálya, Petőfi Sándor utca 42.",47.814551,20.406952,,
573253,"Maklár, Rozmaring utca 15.",47.808775,20.407747,,
573254,"Maklár, Rozmaring utca 15.",47.809450,20.407520,,
573255,"Maklár, József Attila utca 1.",47.803588,20.409128,,
573256,"Maklár, József Attila utca 1.",47.803785,20.409099,,
573257,"Maklár, Templom tér",47.805193,20.413742,,
573258,"Maklár, Templom tér",47.804671,20.413652,,
573259,"Maklár, gyógyszertár",47.811260,20.414711,,
573260,"Maklár, gyógyszertár",47.811127,20.414760,,
573261,"Nagytálya, bejárati út",47.814686,20.415962,,
573262,"Nagytálya, bejárati út",47.814609,20.415825,,
573264,"Maklár, régi vasútállomás",47.802262,20.407217,,
573265,"Maklár, régi vasútállomás",47.802376,20.407396,,
573266,"Füzesabony, Pusztaszikszó",47.768973,20.383681,,
573267,"Füzesabony, Pusztaszikszó",47.768029,20.385083,,
573268,"Kápolna, Szabadság út",47.756023,20.251371,,
573269,"Kápolna, Szabadság út",47.755973,20.251361,,
573274,Kompolti elágazás,47.742897,20.252802,,
573275,Kompolti elágazás,47.743565,20.252887,,
573276,Kompolti elágazás,47.743202,20.252349,,
573277,"Kompolt, templom",47.741756,20.241906,,
573278,"Kál-Kápolna, vasútállomás bejárati út",47.735718,20.257095,,
573279,"Kál-Kápolna, vasútállomás bejárati út",47.735532,20.257368,,
573280,"Kál-Kápolna, vasútállomás",47.734280,20.254723,,
573281,"Kál, községháza",47.730338,20.263045,,
573282,"Kál, községháza",47.731013,20.262501,,
573283,"Kál, községháza",47.730278,20.261783,,
573284,"Erdőtelek, csemegebolt",47.695321,20.309492,,
573285,"Erdőtelek, csemegebolt",47.695139,20.309549,,
573286,"Erdőtelek, vasútállomás bejárati út",47.689354,20.310723,,
573287,"Erdőtelek, vasútállomás bejárati út",47.689929,20.310568,,
573288,"Erdőtelek, autóbusz-váróterem",47.684208,20.316470,,
573289,"Erdőtelek, autóbusz-váróterem",47.684541,20.316136,,
573290,"Erdőtelek, Fő út 52.",47.677659,20.320079,,
573291,"Erdőtelek, Fő út 52.",47.677855,20.319931,,
573292,"Tenk, faluszéle",47.660960,20.336513,,
573293,"Tenk, faluszéle",47.661099,20.336433,,
573294,"Tenk, központ",47.654635,20.340710,,
573295,"Tenk, központ",47.654706,20.340874,,
573296,"Átány, átányi elágazás",47.631917,20.327494,,
573297,"Átány, átányi elágazás",47.632015,20.326585,,
573298,"Átány, átányi elágazás",47.632544,20.326990,,
573299,"Átány, autóbusz-váróterem",47.615031,20.359450,,
573301,"Átány, Alvégesi temető",47.615757,20.371999,,
573302,"Átány, Alvégesi temető",47.616425,20.371918,,
573303,"Kömlő, Rákóczi út 68.",47.601806,20.433188,,
573304,"Kömlő, Rákóczi út 68.",47.601669,20.432759,,
573306,"Tiszanána, Cserepes",47.567095,20.527595,,
573307,"Tiszanána, Cserepes",47.566911,20.527302,,
573308,"Sarud, Petőfi út",47.594039,20.588937,,
573309,"Sarud, Petőfi út",47.595195,20.588504,,
573310,"Sarud, Petőfi út",47.594299,20.588272,,
573312,"Sarud, Pusztahídvég",47.609467,20.583176,,
573313,"Sarud, Pusztahídvég",47.609283,20.583198,,
573314,"Sarud, Csárda malom",47.619415,20.579175,,
573315,"Sarud, Csárda malom",47.619887,20.578946,,
573316,"Újlőrincfalva, Fő út",47.626180,20.597834,,
573317,"Újlőrincfalva, Fő út",47.626152,20.597549,,
573318,"Poroszló, Vágóhíd út",47.641646,20.639332,,
573319,"Poroszló, Vágóhíd út",47.641700,20.639698,,
573321,"Poroszló, Fő út 81.",47.639584,20.642585,,
573322,"Poroszló, Fő út 81.",47.639971,20.643764,,
573323,"Poroszló, református templom",47.643584,20.653061,,
573324,"Poroszló, református templom",47.643438,20.652578,,
573325,"Poroszló, posta",47.646803,20.652657,,
573326,"Poroszló, posta",47.646616,20.652542,,
573327,"Poroszló, vasútállomás bejárati út",47.656467,20.655671,,
573328,"Poroszló, vasútállomás bejárati út",47.656356,20.655503,,
573329,"Poroszló, vasútállomás",47.657565,20.654505,,
573330,"Borsodivánka, autóbusz-váróterem",47.699596,20.653827,,
573331,"Borsodivánka, autóbusz-váróterem",47.699554,20.654169,,
573332,"Poroszló, Ökocentrum",47.646158,20.659210,,
573333,"Poroszló, Ökocentrum",47.646733,20.660264,,
573338,"Besenyőtelek, temető",47.694482,20.434462,,
573339,"Besenyőtelek, temető",47.694504,20.434413,,
573343,"Eger, olajmezők iroda",47.857864,20.363755,,
573344,"Eger, olajmezők",47.854740,20.367407,,
573345,"Eger, olajmezők",47.853832,20.366545,,
573346,"Kerecsend, kertszövetkezet",47.845432,20.372732,,
573347,"Kerecsend, kertszövetkezet",47.846088,20.372100,,
573348,"Kál, Jászapáti út 8.",47.724948,20.252949,,
573349,"Kál, Jászapáti út 8.",47.724967,20.253003,,
573350,"Tarnabod, elágazás",47.688233,20.264986,,
573351,"Tarnabod, elágazás",47.688592,20.264155,,
573352,"Tarnabod, elágazás",47.688927,20.264981,,
573353,"Tarnabod, községháza",47.685714,20.224762,,
573355,"Heves (Alatka), Honvédség",47.665565,20.264128,,
573356,"Heves (Alatka), Honvédség",47.665744,20.264233,,
573357,"Heves (Alatka), új iskola",47.658626,20.259504,,
573358,"Heves (Alatka), új iskola",47.658820,20.259647,,
573359,"Heves (Alatka), régi iskola",47.653292,20.256161,,
573360,"Heves (Alatka), régi iskola",47.653273,20.256214,,
573361,"Heves (Alatka), szövetkezeti bolt",47.645650,20.251827,,
573362,"Heves (Alatka), szövetkezeti bolt",47.645786,20.251945,,
573363,"Heves (Alatka), Bernáthegy",47.640300,20.246668,,
573364,"Heves (Alatka), Bernáthegy",47.640080,20.246513,,
573366,"Pély, kostelep",47.509070,20.337960,,
573368,"Pély, Jeremes",47.503170,20.339557,,
573370,"Pély, Hóstya",47.495329,20.340150,,
573371,"Pély, faluközpont",47.490771,20.342303,,
573372,"Pély, faluközpont",47.490826,20.342324,,
573373,"Pély, faluszéle",47.492547,20.351160,,
573374,"Pély, faluszéle",47.492585,20.351140,,
573375,"Tarnaszentmiklós, temető",47.522055,20.374306,,
573376,"Tarnaszentmiklós, temető",47.521533,20.373924,,
573377,"Tarnaszentmiklós, iskola",47.527367,20.379028,,
573378,"Tarnaszentmiklós, iskola",47.526912,20.378953,,
573379,"Tarnaszentmiklós, újtelep",47.532821,20.382333,,
573380,"Tarnaszentmiklós, újtelep",47.532824,20.382274,,
573381,"Heves, Szabadság utca 20.",47.598790,20.293148,,
573382,"Heves, Szabadság utca 20.",47.598656,20.293043,,
573383,"Heves, tópart",47.601211,20.293488,,
573384,"Heves, tópart",47.600872,20.292982,,
573385,"Heves, vasútállomás bejárati út",47.610800,20.304169,,
573386,"Heves, vasútállomás bejárati út",47.610809,20.304010,,
573387,"Dormánd, 31-es út, 2-es km-kő",47.686777,20.388982,,
573388,"Dormánd, 31-es út, 2-es km-kő",47.686689,20.388816,,
573389,"Dormánd, hevesi útelágazás",47.720950,20.417071,,
573390,"Dormánd, hevesi útelágazás",47.721058,20.417234,,
573391,"Tiszafüred, autóbusz-állomás",47.627226,20.756576,,6464
573394,"Eger, Aradi utca",47.880266,20.381822,,
573395,"Eger, Aradi utca",47.878926,20.381809,,
573400,"Eger, Kisasszony temető",47.907796,20.366413,,
573401,"Eger, Kisasszony temető",47.908776,20.364513,,
573402,"Eger, Kisasszony temető",47.908509,20.365346,,
573403,"Eger, Kisasszony temető",47.907914,20.366127,,
573404,"Eger, tihaméri malom",47.888413,20.395523,,
573405,"Eger, tihaméri malom",47.888112,20.395867,,
573406,"Eger, Malom utca",47.910571,20.372953,,
573407,"Daruszentmiklós, Búcsú tér",46.863866,18.867061,,
573408,"Daruszentmiklós, Búcsú tér",46.863584,18.867434,,
573409,"Mezőfalva, Selyemmajor",46.922354,18.771598,,
573410,"Mezőfalva, Selyemmajor",46.922717,18.772414,,
573411,"Daruszentmiklós, Fő utca 143.",46.848437,18.848550,,
573412,"Daruszentmiklós, Fő utca 143.",46.848893,18.848286,,
573413,"Daruszentmiklós, Fő utca 40.",46.855167,18.843010,,
573414,"Daruszentmiklós, Fő utca 40.",46.855598,18.842463,,
573415,"Daruszentmiklós, Dániel-telep",46.862716,18.846282,,
573416,"Daruszentmiklós, Dániel-telep",46.862973,18.846672,,
573417,"Daruszentmiklós, előszállási elágazás",46.873041,18.856682,,
573418,"Daruszentmiklós, előszállási elágazás",46.872559,18.857412,,
573419,"Daruszentmiklós, előszállási elágazás",46.872471,18.856273,,
573420,"Daruszentmiklós, Bánomi utca",46.876418,18.851065,,
573421,"Daruszentmiklós, Bánomi utca",46.876219,18.851345,,
573422,"Előszállás, Pázmándpuszta",46.859508,18.871973,,
573423,"Előszállás, Pázmándpuszta",46.859700,18.871956,,
573424,"Előszállás, 3-as km",46.851265,18.881992,,
573425,"Előszállás, 3-as km",46.851569,18.881819,,
573426,"Székesfehérvár, Horvát István utca",47.182122,18.415971,,
573427,"Székesfehérvár, Horvát István utca",47.182087,18.415623,,
573428,"Székesfehérvár, Akácfa utca",47.168012,18.424510,,
573429,"Székesfehérvár, Akácfa utca",47.167858,18.424487,,
573430,"Székesfehérvár, őrhalmi szőlők",47.153246,18.433355,,
573431,"Székesfehérvár, őrhalmi szőlők",47.154632,18.432086,,
573432,"Székesfehérvár, Kisteleki tanya",47.140814,18.445120,,
573433,"Székesfehérvár, Kisteleki tanya",47.140110,18.445758,,
573434,Belsőbárándi elágazás,47.102960,18.479544,,
573435,Belsőbárándi elágazás,47.103498,18.478223,,
573436,Belsőbárándi elágazás,47.102570,18.479212,,
573437,"Aba, Kispötöle bejárati út",47.094267,18.488160,,
573438,"Aba, Kispötöle bejárati út",47.093544,18.488914,,
573439,"Székesfehérvár, Fövenyi-tanya",47.121422,18.461586,,
573440,"Székesfehérvár, Fövenyi-tanya",47.120657,18.462212,,
573441,"Bodakajtor, abai elágazás",47.056170,18.490917,,
573443,"Aba, Méhesvölgyi tanya",47.082536,18.500659,,
573444,"Aba, Méhesvölgyi tanya",47.081655,18.501470,,
573445,"Aba, Bodakajtor-Felsőszentiván vasútállomás",47.073341,18.508786,,
573446,"Aba, Bodakajtor-Felsőszentiván vasútállomás",47.072222,18.508544,,
573447,"Aba, Bodakajtor-Felsőszentiván vasútállomás",47.072387,18.509457,,
573448,"Aba, belsőkajtori elágazás",47.062870,18.516432,,
573449,"Aba, belsőkajtori elágazás",47.061630,18.517305,,
573450,"Aba, kajtori őrház",47.053613,18.523186,,
573451,"Aba, kajtori őrház",47.052805,18.523723,,
573452,"Aba, Rákóczi utca",47.035159,18.534593,,
573453,"Aba, Rákóczi utca",47.036157,18.535494,,
573454,"Aba, Rákóczi utca",47.035316,18.534824,,
573455,"Aba, Rákóczi utca",47.035250,18.535925,,
573456,"Aba, Milleneumi park",47.032656,18.527583,,
573457,"Aba, Milleneumi park",47.032693,18.527559,,
573458,"Aba, Hősök tere",47.028659,18.521312,,
573459,"Aba, Bacsó tanya",47.042858,18.530407,,
573460,"Aba, Bacsó tanya",47.041969,18.531072,,
573461,Aba-Sárkeresztúr vasútállomás,47.024441,18.541463,,
573462,Aba-Sárkeresztúr vasútállomás,47.023472,18.541919,,
573463,"Sárkeresztúr, kálozi útelágazás",47.007968,18.546752,,
573464,"Sárkeresztúr, kálozi útelágazás",47.006497,18.548061,,
573465,"Sárkeresztúr, újtelep",46.998328,18.556706,,
573466,"Sárkeresztúr, újtelep",46.997578,18.557323,,
573467,"Sárszentágota, Petőfi Sándor utca",46.974176,18.563648,,
573468,"Sárszentágota, Petőfi Sándor utca",46.974172,18.563547,,
573469,"Sárszentágota, községháza",46.969522,18.558661,,
573470,"Sárszentágota, községháza",46.969556,18.558643,,
573471,"Sárszentágota, iskola",46.966362,18.556595,,
573472,"Sárszentágota, iskola",46.966389,18.556551,,
573473,"Belsőbáránd, Fő utca",47.102598,18.507531,,
573474,"Sárszentágota, bejárati út",46.976529,18.569380,,
573475,"Sárszentágota, bejárati út",46.976184,18.570031,,
573476,"Sárszentágota, bejárati út",46.977265,18.569532,,
573477,"Székesfehérvár, Régi Csóri út",47.206599,18.381378,,
573478,"Székesfehérvár, Régi Csóri út",47.206294,18.381884,,
573481,"Székesfehérvár, Szent Gellért utca",47.194617,18.401258,,
573482,"Székesfehérvár, Szent Gellért utca",47.195742,18.399929,,
573483,"Székesfehérvár, Hosszú temető",47.199100,18.394806,,
573484,"Székesfehérvár, Hosszú temető",47.200137,18.393638,,
573485,"Székesfehérvár, iszkaszentgyörgyi elágazás",47.211492,18.359903,,
573486,"Székesfehérvár, iszkaszentgyörgyi elágazás",47.212700,18.357433,,
573487,"Székesfehérvár, iszkaszentgyörgyi elágazás",47.212216,18.357323,,
573488,"Csór, Iszkaszőlőhegy",47.212790,18.296682,,
573489,"Csór, Iszkaszőlőhegy",47.212401,18.297030,,
573490,"Csór, szőlőhegy",47.207788,18.274087,,
573491,"Csór, szőlőhegy",47.207900,18.274916,,
573492,"Csór, Rákóczi utca 1.",47.206106,18.267287,,
573493,"Csór, Rákóczi utca 1.",47.206168,18.267478,,
573494,"Csór, Magyar utca",47.205432,18.259323,,
573495,"Csór, Magyar utca",47.205436,18.259120,,
573496,"Csór, Ady Endre utca",47.202379,18.250450,,
573497,"Csór, Ady Endre utca",47.202032,18.249517,,
573498,"Nádasdladány, Gyár utca",47.126257,18.239514,,
573499,"Nádasdladány, Gyár utca",47.126598,18.239555,,
573500,"Nádasdladány, Öreghegy",47.117531,18.240924,,
573501,"Nádasdladány, Öreghegy",47.117446,18.241020,,
573502,"Jenő, Fő utca 28.",47.110082,18.245752,,
573503,"Jenő, Fő utca 28.",47.109946,18.245821,,
573504,"Jenő, Fő utca 73.",47.105157,18.250506,,
573505,"Jenő, Fő utca 73.",47.104965,18.250635,,
573506,"Jenő, Kossuth utca",47.102650,18.246490,,
573507,"Nádasdladány, jenői elágazás",47.137724,18.240000,,
573508,"Nádasdladány, jenői elágazás",47.137028,18.239887,,
573509,"Nádasdladány, jenői elágazás",47.137142,18.240774,,
573510,"Nádasdladány, Rózsa utca",47.138898,18.248558,,
573511,"Nádasdladány, Rózsa utca",47.138587,18.247978,,
573512,"Sárkeszi, Kiskeszi",47.151972,18.271846,,
573513,"Sárkeszi, Kiskeszi",47.151060,18.270623,,
573514,"Sárkeszi, Temető utca",47.156564,18.280038,,
573515,"Sárkeszi, Temető utca",47.156720,18.280623,,
573516,"Sárkeszi, Kossuth Lajos utca",47.158396,18.285518,,
573517,"Sárkeszi, Kossuth Lajos utca",47.159159,18.287669,,
573518,"Sárszentmihály, Fő út 234.",47.158307,18.310130,,
573519,"Sárszentmihály, Fő út 234.",47.158269,18.310306,,
573520,"Sárszentmihály, Dózsa utca",47.156701,18.319939,,
573521,"Sárszentmihály, Dózsa utca",47.156395,18.320531,,
573522,"Sárszentmihály, Fő utca 69.",47.153799,18.325653,,
573523,"Sárszentmihály, Fő utca 69.",47.152671,18.327389,,
573524,"Sárszentmihály, iskola",47.152303,18.336403,,
573525,"Sárszentmihály, iskola",47.151723,18.337737,,
573526,"Úrhida, Táncsics Mihály utca",47.125348,18.314936,,
573528,"Úrhida, Dózsa György utca 1.",47.124492,18.324742,,
573529,"Úrhida, Dózsa György utca 1.",47.124541,18.324972,,
573530,"Úrhida, Jókai utca",47.130154,18.332022,,
573531,"Úrhida, Jókai utca",47.131144,18.332408,,
573532,"Úrhida, községháza",47.133042,18.334307,,
573533,"Úrhida, községháza",47.133341,18.334582,,
573534,"Úrhida, Kossuth utca 65.",47.136398,18.338567,,
573535,"Úrhida, Kossuth utca 65.",47.136531,18.338835,,
573536,"Úrhida, Kossuth utca 23.",47.139952,18.342855,,
573537,"Úrhida, Kossuth utca 23.",47.140220,18.343386,,
573538,Úrhidai elágazás [3],47.144444,18.351710,,
573539,Úrhidai elágazás [3],47.144974,18.352572,,
573540,Sárpentelei elágazás [2],47.150257,18.372198,,
573541,Sárpentelei elágazás [2],47.150650,18.372265,,
573542,Sárpentelei elágazás [2],47.150459,18.372901,,
573543,"Székesfehérvár, Orsovai utca",47.155286,18.385986,,
573544,"Székesfehérvár, Orsovai utca",47.155186,18.385829,,
573545,"Cece, Bethlen Gábor utca",46.779813,18.633728,,
573546,"Cece, Bethlen Gábor utca",46.779494,18.633702,,
573547,"Cece, Fehérvári utca 62.",46.786830,18.635238,,
573548,"Cece, Fehérvári utca 62.",46.787429,18.635370,,
573549,"Cece, Gyulamajor",46.798805,18.637654,,
573550,"Cece, Gyulamajor",46.799281,18.637798,,
573551,"Rétszilas, hadnagypusztai elágazás",46.823960,18.636757,,
573552,"Rétszilas, hadnagypusztai elágazás",46.825229,18.636618,,
573553,"Rétszilas, Bocskai utca",46.831561,18.636592,,
573554,"Rétszilas, Bocskai utca",46.831368,18.636646,,
573555,"Sárbogárd, Petőfi Sándor utca",46.876799,18.624732,,
573556,"Sárbogárd, Petőfi Sándor utca",46.877444,18.624397,,
573557,"Sárbogárd, rendelőintézet",46.888620,18.618479,,
573558,"Sárbogárd, rendelőintézet",46.889587,18.618100,,
573559,"Sárbogárd, vasútállomás bejárati út",46.896584,18.615177,,
573560,"Sárbogárd, vasútállomás bejárati út",46.896855,18.615156,,
573561,"Sárbogárd, Haladás utca",46.905597,18.625428,,
573562,"Sárbogárd, Újtelep",46.904268,18.610593,,
573563,"Sárbogárd, Újtelep",46.905269,18.610235,,
573564,"Sárbogárd, Kislókpuszta",46.922848,18.675798,,
573565,"Sárbogárd, Kislókpuszta",46.922295,18.675553,,
573566,"Kislók, Rákóczi utca",46.927453,18.682323,,
573567,"Kislók, Rákóczi utca",46.926836,18.681527,,
573568,"Kislók, Tavasz utca",46.930520,18.686423,,
573569,"Kislók, Tavasz utca",46.930354,18.686255,,
573570,"Nagylók, Erdőmajor",46.951238,18.684711,,
573571,"Nagylók, Erdőmajor",46.951324,18.684653,,
573572,"Nagylók, Belátó utca",46.969944,18.652475,,
573573,"Nagylók, Belátó utca",46.969968,18.652523,,
573574,"Nagylók, Hunyadi János utca",46.973572,18.648348,,
573575,"Nagylók, Hunyadi János utca",46.973430,18.648519,,
573576,"Nagylók, községháza",46.977915,18.643778,,
573577,"Nagylók, községháza",46.977945,18.643816,,
573578,"Nagylók, József Attila utca",46.977020,18.637887,,
573579,"Nagylók, József Attila utca",46.976817,18.637242,,
573582,"Hantos, templom",46.996467,18.694165,,
573583,"Hantos, templom",46.996437,18.694205,,
573584,"Hantos, nagylóki elágazás",47.000483,18.698817,,
573585,"Hantos, nagylóki elágazás",47.001060,18.698947,,
573586,"Hantos, nagylóki elágazás",47.000973,18.698996,,
573587,"Hantos, újtelep",47.008433,18.690997,,
573588,"Hantos, újtelep",47.008701,18.690703,,
573591,"Sárbogárd, Katona utca 24.",46.898473,18.609772,,
573592,"Sárbogárd, Katona utca 24.",46.898246,18.609295,,
573593,"Sárbogárd, István úti iskola",46.901596,18.601618,,
573594,"Sárbogárd, István úti iskola",46.901726,18.601534,,
573595,"Sárbogárd, Esze Tamás utca",46.904020,18.598984,,
573596,"Sárbogárd, Esze Tamás utca",46.904570,18.598483,,
573597,"Sárbogárd, Alsókörtvélyes",46.918457,18.604196,,
573598,"Sárbogárd, Alsókörtvélyes",46.919376,18.603582,,
573599,"Felsőkörtvélyes, vasútállomás bejárati út",46.939374,18.594581,,
573600,"Felsőkörtvélyes, vasútállomás bejárati út",46.940300,18.594222,,
573601,"Sárszentágota, alsó",46.965685,18.577575,,
573602,"Sárszentágota, alsó",46.966742,18.576690,,
573603,"Nádasdladány, Arany János utca",47.131283,18.240312,,
573604,"Nádasdladány, Arany János utca",47.131607,18.240257,,
573605,"Sárpentele, templom",47.162218,18.363113,,
573606,"Sárpentele, templom",47.162156,18.363122,,
573607,"Sárpentele, Széchenyi Zsigmond utca",47.162838,18.359990,,
573608,"Cece, Hősi emlékmű",46.770973,18.628859,,
573609,"Cece, Hősi emlékmű",46.771203,18.629175,,
573611,"Cece, Hősi emlékmű",46.771310,18.629931,,
573612,"Sárbogárd, Magyar utca",46.859736,18.630750,,
573613,"Sárbogárd, Magyar utca",46.858277,18.631087,,
573614,"Sárbogárd, Semmelweis Ignác utca",46.866815,18.627044,,
573615,"Sárbogárd, Semmelweis Ignác utca",46.867326,18.626647,,
573616,"Sárbogárd, Városháza",46.883991,18.621173,,
573617,"Sárbogárd, Városháza",46.884484,18.620841,,
573618,"Sárbogárd, vasútállomás",46.896825,18.612613,,1048
573619,"Sárbogárd, vásártér",46.890114,18.625254,,
573620,"Sárbogárd, vásártér",46.889669,18.624718,,
573621,"Sárbogárd, lakótelep",46.914407,18.667972,,
573622,"Sárbogárd, lakótelep",46.913881,18.667327,,
573623,"Nagylók, vasútállomás",46.979702,18.635388,,
573624,"Mezőfalva, nagysismándi elágazás",46.944514,18.744091,,
573625,"Mezőfalva, nagysismándi elágazás",46.943956,18.744577,,
573626,"Mezőfalva, nagysismándi elágazás",46.944076,18.743761,,
573627,"Polgárdi, Ipartelep vasútállomás lejáró",47.079586,18.321465,,
573628,"Polgárdi, Ipartelep vasútállomás lejáró",47.079162,18.320961,,
573629,"Polgárdi, Szabadság utca",47.051247,18.305303,,
573630,"Polgárdi, Szabadság utca",47.051336,18.305336,,
573631,"Polgárdi, Krisztián köz",47.055986,18.301153,,
573632,"Polgárdi, Krisztián köz",47.055658,18.301450,,
573633,"Kiscséripuszta, vasútállomás bejárati út",47.044881,18.346214,,
573634,"Kiscséripuszta, vasútállomás bejárati út",47.044827,18.346706,,
573635,"Kiscséripuszta, vasútállomás bejárati út",47.044608,18.346475,,
573636,"Nagycséripuszta, bejárati út",47.037896,18.353146,,
573637,"Nagycséripuszta, bejárati út",47.037874,18.353096,,
573638,"Kisláng, szárítóüzem",47.032851,18.358097,,
573639,"Kisláng, szárítóüzem",47.032618,18.358318,,
573640,"Kisláng, Tarnóczapuszta",47.002800,18.380900,,
573641,"Kisláng, Tarnóczapuszta",47.002777,18.380851,,
573642,"Kisláng, Dózsa György utca",46.965581,18.391933,,
573643,"Kisláng, Dózsa György utca",46.965478,18.391692,,
573644,"Kisláng, községháza",46.962127,18.384311,,
573645,"Kisláng, községháza",46.960753,18.384792,,
573646,"Kisláng, Kossuth Lajos utca",46.957962,18.387526,,
573647,"Kisláng, Kossuth Lajos utca",46.957098,18.388334,,
573648,"Kisláng, Béke utca",46.954552,18.390847,,
573649,"Kisláng, Béke utca",46.953961,18.391355,,
573650,"Mátyásdomb, Fő utca",46.922847,18.347105,,
573651,"Mátyásdomb, Fő utca",46.922359,18.346458,,
573652,"Dég, temető",46.862996,18.437852,,
573653,"Dég, temető",46.862934,18.437696,,
573654,"Dég, bejárati út",46.859264,18.427708,,
573655,"Dég, bejárati út",46.859617,18.427159,,
573656,"Mezőszilas, Fő utca 79.",46.821827,18.475988,,
573657,"Mezőszilas, Fő utca 79.",46.822276,18.475492,,
573658,"Mezőszilas, községháza",46.818609,18.478729,,
573659,"Mezőszilas, községháza",46.818923,18.478335,,
573660,"Mezőszilas, Mártírok útja",46.812007,18.482231,,
573661,"Mezőszilas, Mártírok útja",46.812458,18.481772,,
573662,"Mezőszilas, Tükröspuszta bejárati út",46.806612,18.486078,,
573663,"Mezőszilas, Tükröspuszta bejárati út",46.807307,18.485398,,
573664,"Mezőszilas, Hordóvölgypuszta",46.797249,18.491792,,
573665,"Mezőszilas, Hordóvölgypuszta",46.797093,18.491892,,
573666,"Igar, vásártér",46.780176,18.510695,,
573667,"Igar, vásártér",46.780751,18.510144,,
573668,"Igar, templom",46.775542,18.514393,,
573669,"Igar, templom",46.774692,18.514701,,
573674,"Vámpuszta, újtelep",46.756236,18.504546,,
573675,"Vámpuszta, újtelep",46.756212,18.504409,,
573676,Vámpuszta,46.754641,18.498448,,
573677,Vámpuszta,46.754680,18.498432,,
573678,"Vámiszőlőhegy, Petőfi utca 24.",46.751078,18.469776,,
573679,"Vámiszőlőhegy, Petőfi utca 24.",46.751074,18.469638,,
573680,"Vámiszőlőhegy, óvoda",46.749412,18.464304,,
573681,"Vámiszőlőhegy, óvoda",46.749440,18.464263,,
573682,"Vámiszőlőhegy, bolt",46.748755,18.458883,,
573683,"Vámiszőlőhegy, bolt",46.748730,18.458660,,
573684,"Vámiszőlőhegy, Keresztvölgy",46.751276,18.441868,,
573685,"Vámiszőlőhegy, Keresztvölgy",46.751315,18.441887,,
573686,"Vámiszőlőhegy, dádpusztai elágazás",46.755097,18.435304,,
573687,"Vámiszőlőhegy, dádpusztai elágazás",46.755051,18.435596,,
573688,"Ozora, községháza",46.752969,18.399639,,
573689,"Ozora, községháza",46.753008,18.399437,,
573690,"Ozora, községháza",46.753405,18.398395,,
573691,"Ozora, községháza",46.752866,18.398788,,
573692,"Mezőszilas, pusztaegresi elágazás",46.827329,18.472320,,
573693,"Mezőszilas, pusztaegresi elágazás",46.827126,18.472448,,
573696,"Mezőszilas, Ángyádi út",46.826935,18.480901,,
573697,"Mezőszilas, Ángyádi út",46.827074,18.482264,,
573698,"Pusztaegres, községháza",46.835243,18.524219,,
573699,"Pusztaegres, községháza",46.835188,18.524157,,
573700,"Pusztaegres, Rákóczi utca 8.",46.836631,18.531625,,
573701,"Pusztaegres, Rákóczi utca 8.",46.836682,18.532060,,
573702,"Polgárdi, kislángi útelágazás",47.051648,18.303665,,
573703,"Polgárdi, kislángi útelágazás",47.053765,18.304921,,
573704,"Lepsény, Kölestelek bejárati út",47.020966,18.280541,,
573705,"Lepsény, Kölestelek bejárati út",47.021835,18.281674,,
573706,"Kiscséripuszta, vasútállomás",47.047884,18.354402,,
573709,Lajoskomáromi elágazás [7],46.867735,18.411798,,
573710,Lajoskomáromi elágazás [7],46.867094,18.412265,,
573711,Lajoskomáromi elágazás [7],46.867411,18.412872,,
573712,"Dég, Béke tér",46.869384,18.443716,,
573713,"Dég, Enyingi utca 77.",46.860565,18.431926,,
573714,"Dég, Enyingi utca 77.",46.860308,18.431379,,
573715,"Simontornya, Zrínyi utca",46.761147,18.535669,,
573716,"Simontornya, Zrínyi utca",46.761089,18.535826,,
573717,"Sárbogárd, Ödönmajor",46.839057,18.540470,,
573718,"Sárbogárd, Ödönmajor",46.838866,18.539711,,
573719,Bodajki elágazás,47.334542,18.251067,,
573720,Bodajki elágazás,47.334630,18.251059,,
573723,Bodajk-Csókakő vasúti megállóhely,47.329686,18.236493,,
573724,Bodajk-Csókakő vasúti megállóhely,47.329707,18.236441,,
573725,"Bodajk, Ifjúsági tábor",47.316384,18.205966,,
573726,"Bodajk, Ifjúsági tábor",47.315823,18.205441,,
573727,"Balinka, Petőfi utca 102.",47.314820,18.197559,,
573728,"Balinka, Petőfi utca 102.",47.314849,18.197218,,
573729,"Balinka, községháza",47.313857,18.187341,,
573730,"Balinka, községháza",47.313919,18.187116,,
573731,Balinkabánya bejárati út,47.319412,18.157662,,
573732,Balinkabánya bejárati út,47.319469,18.157645,,
573733,"Balinka, Mecsértelep",47.321545,18.136297,,
573734,"Balinka, Mecsértelep",47.321716,18.135143,,
573735,"Bakonycsernye, kisgyóni elágazás",47.322051,18.116887,,
573736,"Bakonycsernye, kisgyóni elágazás",47.322242,18.116341,,
573737,"Bakonycsernye, Petőfi Sándor utca 2.",47.323090,18.106988,,
573738,"Bakonycsernye, Petőfi Sándor utca 2.",47.323108,18.106987,,
573739,"Bakonycsernye, Rózsa utca",47.322390,18.093219,,
573740,"Bakonycsernye, Rózsa utca",47.322399,18.093161,,
573741,"Bakonycsernye, Bercsényi utca",47.319537,18.085418,,
573742,"Bakonycsernye, Bercsényi utca",47.319920,18.083957,,
573743,"Bakonycsernye, iskola",47.321434,18.079668,,
573744,"Bakonycsernye, iskola",47.321470,18.079704,,
573745,"Bakonycsernye, Súri út",47.323439,18.074998,,
573746,"Bakonycsernye, Súri út",47.323634,18.074149,,
573747,"Bakonycsernye, Súri út",47.323664,18.072504,,
573748,"Bakonycsernye, Súri út",47.323644,18.072424,,
573749,"Bakonycsernye, Arany János utca",47.321719,18.067356,,
573750,"Bakonycsernye, Arany János utca",47.321767,18.067379,,
573751,"Szápár, malom",47.316609,18.041702,,
573752,"Szápár, malom",47.316552,18.042930,,
573753,"Szápár, malom",47.316459,18.042627,,
573754,"Súr, kultúrotthon",47.368639,18.028105,,
573755,"Súr, kultúrotthon",47.368255,18.027896,,
573756,"Bodajk, vasútállomás bejárati út",47.316569,18.247831,,
573757,"Bodajk, vasútállomás bejárati út",47.315709,18.248654,,
573758,"Fehérvárcsurgó, TÜZÉP",47.309264,18.252701,,
573759,"Fehérvárcsurgó, TÜZÉP",47.308998,18.252881,,
573760,"Fehérvárcsurgó, guttamási elágazás",47.295630,18.262114,,
573761,"Fehérvárcsurgó, guttamási elágazás",47.294954,18.262797,,
573762,"Fehérvárcsurgó, kastély",47.289337,18.269359,,
573763,"Fehérvárcsurgó, kastély",47.288954,18.269351,,
573764,"Fehérvárcsurgó, vasúti átjáró",47.285909,18.290926,,
573765,"Fehérvárcsurgó, vasúti átjáró",47.285857,18.290388,,
573766,"Fehérvárcsurgó, Igarpuszta",47.286474,18.299845,,
573767,"Fehérvárcsurgó, Igarpuszta",47.286920,18.300786,,
573768,"Fehérvárcsurgó, Atyamajor",47.273819,18.291378,,
573769,"Fehérvárcsurgó, Atyamajor",47.273918,18.291375,,
573770,"Kincsesbánya, Rákhegy",47.271304,18.277790,,
573771,"Kincsesbánya, Rákhegy",47.271337,18.277756,,
573772,"Kincsesbánya, laktanya",47.258232,18.254932,,
573773,"Kincsesbánya, laktanya",47.258382,18.254633,,
573774,"Guttamási, bakonykúti elágazás",47.268018,18.219535,,
573775,"Guttamási, bakonykúti elágazás",47.268359,18.218312,,
573776,"Guttamási, bakonykúti elágazás",47.267784,18.218488,,
573777,"Isztimér, Óvoda",47.274752,18.203884,,
573778,"Isztimér, Óvoda",47.274771,18.203927,,
573779,"Isztimér, Köztársaság utca 20.",47.276222,18.200848,,
573780,"Isztimér, Köztársaság utca 20.",47.276408,18.200371,,
573781,"Isztimér, posta",47.279423,18.194902,,
573782,"Isztimér, posta",47.279690,18.194578,,
573783,"Bakonykúti, Jókai utca",47.247510,18.199725,,
573784,"Bakonykúti, Jókai utca",47.247536,18.199680,,
573786,"Bakonykúti, Szabadság utca",47.245160,18.196963,,
573787,"Kincsesbánya, óvoda",47.263531,18.273385,,
573788,"Kincsesbánya, óvoda",47.263470,18.272748,,
573789,Kincsesbányai elágazás,47.257454,18.261256,,
573790,Kincsesbányai elágazás,47.256842,18.260512,,
573791,Kincsesbányai elágazás,47.256785,18.261737,,
573792,"Iszkaszentgyörgy, Nyugat-Somosmáli",47.252003,18.271314,,
573793,"Iszkaszentgyörgy, Nyugat-Somosmáli",47.251726,18.271503,,
573794,"Iszkaszentgyörgy, Sándormajor",47.247771,18.276853,,
573795,"Iszkaszentgyörgy, Sándormajor",47.247524,18.277315,,
573796,"Iszkaszentgyörgy, kastély",47.240825,18.292901,,
573797,"Iszkaszentgyörgy, kastély",47.240822,18.294057,,
573798,"Iszkaszentgyörgy, mohai elágazás",47.242777,18.304651,,
573799,"Iszkaszentgyörgy, mohai elágazás",47.242999,18.305213,,
573801,"Iszkaszentgyörgy, mohai elágazás",47.243113,18.305108,,
573802,"Iszkaszentgyörgy, mohai elágazás",47.242797,18.304755,,
573803,"Iszkaszentgyörgy, mohai elágazás",47.242581,18.304744,,
573804,"Iszkaszentgyörgy, Márványkert",47.243080,18.311329,,
573805,"Iszkaszentgyörgy, Márványkert",47.243113,18.311379,,
573806,"Kincsesbánya, Somosmáli utca",47.260512,18.281727,,
573807,"Kincsesbánya, Somosmáli utca",47.260659,18.281660,,
573809,"Iszkaszentgyörgy, József Attila utca",47.235604,18.293847,,
573810,"Iszkaszentgyörgy, Gyógyszertár",47.242834,18.299687,,
573811,"Iszkaszentgyörgy, Gyógyszertár",47.242804,18.299727,,
573812,"Iszkaszentgyörgy, Petőfi utca 62.",47.240577,18.311733,,
573813,"Iszkaszentgyörgy, Petőfi utca 62.",47.240436,18.312032,,
573814,"Moha, bejárati út",47.234371,18.326391,,
573815,"Moha, bejárati út",47.234091,18.327419,,
573816,"Iszkaszentgyörgy, Aligvári szőlőhegy",47.226360,18.343388,,
573817,"Iszkaszentgyörgy, Aligvári szőlőhegy",47.226772,18.342655,,
573818,"Moha, Krumpli-dűlő",47.244085,18.323589,,
573819,"Moha, Krumpli-dűlő",47.243995,18.323076,,
573820,"Moha, Fő utca",47.244312,18.332537,,
573821,"Moha, Fő utca",47.244196,18.332817,,
573822,"Moha, vasútállomás bejárati út",47.248752,18.336168,,
573823,"Moha, vasútállomás bejárati út",47.248732,18.336150,,
573824,"Sárkeresztes, művelődési ház",47.250874,18.350103,,
573825,"Sárkeresztes, művelődési ház",47.251024,18.350186,,
573826,Csókakői elágazás,47.333988,18.254903,,
573827,Csókakői elágazás,47.334399,18.255683,,
573828,Csókakői elágazás,47.333562,18.255878,,
573829,"Mór, Bartók Béla utca",47.363060,18.213453,,
573830,"Mór, Bartók Béla utca",47.362317,18.213918,,
573831,"Bodajk, lakótelepi elágazás",47.324157,18.231544,,
573832,"Bodajk, lakótelepi elágazás",47.324045,18.232313,,
573833,"Bodajk, lakótelepi elágazás",47.324524,18.232275,,
573834,"Bodajk, Dózsa György utca 78.",47.322655,18.226373,,
573835,"Bodajk, Dózsa György utca 78.",47.322616,18.225760,,
573836,"Bodajk, városháza",47.321913,18.235735,,
573837,"Bodajk, városháza",47.322008,18.235719,,
573838,"Fehérvárcsurgó, igarpusztai elágazás",47.285396,18.276072,,
573839,"Fehérvárcsurgó, igarpusztai elágazás",47.285637,18.274997,,
573840,"Fehérvárcsurgó, igarpusztai elágazás",47.285181,18.276128,,
573841,"Kincsesbánya, Éva Bisztró",47.264603,18.277788,,
573842,"Kincsesbánya, Éva Bisztró",47.264935,18.278065,,
573843,"Kincsesbánya, Éva Bisztró",47.264436,18.278414,,
573844,"Isztimér, tűzoltószertár",47.281996,18.191145,,
573845,"Kincsesbánya, Petőfi utca",47.265344,18.273598,,
573846,"Kincsesbánya, Petőfi utca",47.265363,18.273625,,
573847,"Szabadbattyán, Emmaróza",47.144232,18.390685,,
573848,"Szabadbattyán, Emmaróza",47.144739,18.390980,,
573849,"Szabadbattyán, kálozi útelág",47.119949,18.373189,,
573850,"Szabadbattyán, kálozi útelág",47.120207,18.373449,,
573851,"Szabadbattyán, kálozi útelág",47.119740,18.374112,,
573852,"Szabadbattyán, kálozi útelág",47.119610,18.374250,,
573853,"Szabadbattyán, Árpád utca",47.116821,18.368779,,
573854,"Szabadbattyán, Árpád utca",47.116179,18.367590,,
573855,"Szabadbattyán, Kossuth utca",47.111386,18.362343,,
573856,"Szabadbattyán, Kossuth utca",47.111658,18.361351,,
573857,"Szabadbattyán, Kossuth utca",47.110603,18.361165,,
573858,"Kőszárhegy, Fő utca 6.",47.094453,18.347122,,
573859,"Kőszárhegy, Fő utca 6.",47.094181,18.346809,,
573860,"Kőszárhegy, községháza",47.090472,18.341450,,
573861,"Kőszárhegy, községháza",47.090202,18.340777,,
573862,"Kőszárhegy, szőlőhegy",47.086138,18.332943,,
573863,"Kőszárhegy, szőlőhegy",47.085905,18.332474,,
573864,"Polgárdi, Május 1. utca",47.066397,18.301581,,
573865,"Polgárdi, Május 1. utca",47.066185,18.301242,,
573866,"Polgárdi, városháza",47.060927,18.296677,,
573867,"Polgárdi, városháza",47.060962,18.296774,,
573868,"Polgárdi, városháza",47.060469,18.296650,,
573870,"Polgárdi, Piac tér",47.059341,18.291903,,
573871,"Polgárdi, Piac tér",47.059197,18.292087,,
573872,"Polgárdi, József utca 20.",47.062553,18.288677,,
573873,"Polgárdi, József utca 20.",47.062551,18.288550,,
573874,"Polgárdi, Vasút utca",47.064880,18.283336,,
573875,"Polgárdi, Vasút utca",47.065050,18.283258,,
573876,"Füle, Jókai Mór utca",47.056969,18.249745,,
573877,"Füle, Jókai Mór utca",47.056998,18.249704,,
573878,"Füle, községháza",47.052245,18.246166,,
573879,"Füle, községháza",47.052212,18.246130,,
573881,"Lepsény, Vasút utca",46.994893,18.243521,,
573882,"Lepsény, Vasút utca",46.995147,18.242487,,
573883,"Lepsény, Vasút utca",46.995513,18.243589,,
573884,"Lepsény, vasúti kültelek",46.988724,18.267518,,
573885,"Lepsény, vasúti kültelek",46.988664,18.267871,,
573886,"Mezőszentgyörgy, községháza",46.994249,18.272910,,
573887,"Mezőszentgyörgy, községháza",46.994230,18.272963,,
573888,"Lepsény, Május 1. utca",47.001830,18.254260,,
573889,"Lepsény, Május 1. utca",47.001383,18.253905,,
573890,"Lepsény, homokbánya",47.011098,18.268806,,
573891,"Lepsény, homokbánya",47.011621,18.269480,,
573892,"Balatonvilágos, major",46.967331,18.181306,,
573893,"Balatonvilágos, major",46.967444,18.181070,,
573894,Alsótekeres,46.957395,18.187601,,
573895,Alsótekeres,46.957425,18.187530,,
573897,"Siófok, Gamásza",46.943130,18.166343,,
573898,"Siófok, Gamásza",46.943350,18.166762,,
573899,"Balatonvilágos, Autópálya mérnökség",46.988625,18.190251,,
573900,"Balatonvilágos, Autópálya mérnökség",46.988994,18.190022,,
573901,"Lepsény, Temető utca",46.990740,18.235187,,
573902,"Lepsény, Temető utca",46.990180,18.234212,,
573903,Enyingi elágazás [6],46.972355,18.206475,,
573904,Enyingi elágazás [6],46.970214,18.204429,,
573905,Enyingi elágazás [6],46.969719,18.206677,,
573906,Enyingi elágazás [6],46.972126,18.205120,,
573907,"Enying, Kispuszta",46.966966,18.208954,,
573908,"Enying, Kispuszta",46.966440,18.209320,,
573909,"Balatonbozsok, Fő utca 100.",46.956731,18.216844,,
573910,"Balatonbozsok, Fő utca 100.",46.955950,18.217518,,
573911,"Balatonbozsok, Kertalja utca",46.951267,18.227646,,
573912,"Balatonbozsok, Kertalja utca",46.950859,18.227998,,
573913,"Enying, Dózsa György út 57.",46.941558,18.231743,,
573914,"Enying, Dózsa György út 57.",46.940824,18.232001,,
573915,"Enying, Kossuth Lajos utca 61.",46.933354,18.239753,,
573916,"Enying, Kossuth Lajos utca 61.",46.932441,18.240631,,
573917,"Enying, Kossuth Lajos utca 6.",46.929047,18.243307,,
573918,"Enying, Kossuth Lajos utca 6.",46.928204,18.243846,,
573919,"Enying, Vas Gereben utca",46.915577,18.251480,,
573920,"Enying, Vas Gereben utca",46.915061,18.251758,,
573921,"Lajoskomárom, községháza",46.842116,18.337000,,
573922,"Lajoskomárom, községháza",46.841476,18.336857,,
573923,"Lajoskomárom, községháza",46.841170,18.335687,,
573924,"Enying, vasútállomás bejárati út",46.922618,18.256716,,
573925,"Enying, vasútállomás bejárati út",46.922811,18.255952,,
573926,"Enying, iparterület",46.919848,18.264957,,
573927,"Enying, iparterület",46.919213,18.266679,,
573928,"Enying, ágostonpusztai elágazás",46.913842,18.282992,,
573929,"Enying, ágostonpusztai elágazás",46.913850,18.284005,,
573930,"Enying, ágostonpusztai elágazás",46.913555,18.283655,,
573931,"Mátyásdomb, mátyásdombi elágazás",46.902495,18.316880,,
573932,"Mátyásdomb, mátyásdombi elágazás",46.903022,18.318054,,
573933,"Mátyásdomb, mátyásdombi elágazás",46.902144,18.317730,,
573934,"Dég (Újtelep), Diófa utca",46.861349,18.409453,,
573935,"Dég (Újtelep), Diófa utca",46.860832,18.409170,,
573936,"Dég (Újtelep), Fő utca 18.",46.855949,18.405944,,
573937,"Dég (Újtelep), Fő utca 18.",46.855766,18.405597,,
573938,"Lajoskomárom, Középbogárd",46.850651,18.395809,,
573939,"Lajoskomárom, Középbogárd",46.850356,18.395165,,
573940,"Lajoskomárom, Bogárdi utca",46.846641,18.352461,,
573941,"Lajoskomárom, Bogárdi utca",46.846162,18.350935,,
573942,"Lajoskomárom, Malom köz",46.843838,18.343928,,
573943,"Lajoskomárom, Malom köz",46.844198,18.344888,,
573944,"Mezőkomárom, Petőfi Sándor utca",46.828274,18.289428,,
573945,"Mezőkomárom, Petőfi Sándor utca",46.827468,18.290028,,
573946,"Szabadhídvég, Fő utca 31.",46.821685,18.276389,,
573947,"Szabadhídvég, Fő utca 31.",46.821587,18.276126,,
573950,Pélpuszta,46.831337,18.225546,,
573951,Pélpuszta,46.831340,18.225585,,
573952,"Pélpuszta, pélpusztai elágazás",46.818481,18.235962,,
573953,"Pélpuszta, pélpusztai elágazás",46.818994,18.234650,,
573954,"Pélpuszta, pélpusztai elágazás",46.818348,18.234059,,
573955,"Nagyberény, felső",46.799702,18.165833,,
573956,"Nagyberény, felső",46.799718,18.165788,,
573957,"Szabadhídvég, posta",46.823246,18.281529,,
573958,"Szabadhídvég, posta",46.823169,18.281366,,
573960,"Felsőnyék, községháza",46.788946,18.291573,,
573961,"Felsőnyék, községháza",46.789283,18.290749,,
573962,"Felsőnyék, községháza",46.789328,18.290791,,
573963,"Lajoskomárom, Bem utca",46.838091,18.325906,,
573964,"Lajoskomárom, Bem utca",46.838784,18.328319,,
573965,"Székesfehérvár, Rádiótelep",47.161400,18.401663,,
573966,"Székesfehérvár, Rádiótelep",47.161392,18.401816,,
573967,"Szabadbattyán, Pokolpince",47.135788,18.383256,,
573968,"Szabadbattyán, Pokolpince",47.136053,18.383520,,
573969,"Szabadbattyán, lajostelepi elágazás",47.125767,18.376275,,
573970,"Szabadbattyán, lajostelepi elágazás",47.126459,18.376296,,
573971,"Szabadbattyán, Szabadság tér",47.116538,18.357919,,
573972,"Balatonfőkajár, posta",47.017999,18.210490,,
573973,"Lepsény, vasútállomás bejárati út",46.990054,18.249202,,
573974,"Lepsény, vasútállomás bejárati út",46.990127,18.249161,,
573977,"Mátyásdomb, Ágostonpuszta",46.932025,18.315273,,
573978,"Mezőkomárom, Rákóczi Ferenc utca",46.832006,18.298055,,
573979,"Mezőkomárom, Rákóczi Ferenc utca",46.832372,18.299278,,
573980,"Mór, kórház bejárati út",47.367198,18.210928,,
573981,"Mór, kórház bejárati út",47.367848,18.210909,,
573982,"Mór, VÉRTES Áruház",47.371056,18.209742,,
573983,"Mór, VÉRTES Áruház",47.371706,18.208299,,
573984,"Mór, VÉRTES Áruház",47.372372,18.209605,,
573986,"Mór, Széchenyi utca",47.375822,18.222313,,
573987,"Mór, Széchenyi utca",47.375490,18.221670,,
573988,"Mór, Árki utca",47.383530,18.226057,,
573989,"Mór, Árki utca",47.384486,18.225992,,
573990,"Mór, Árkipuszta",47.401246,18.223912,,
573991,"Mór, Árkipuszta",47.401555,18.223374,,
573992,"Mór, Árkipuszta",47.401371,18.224261,,
573993,"Mór, Árkipuszta",47.401546,18.223316,,
573994,"Pusztavám, Rába Mór Kft.",47.410500,18.245334,,
573995,"Pusztavám, Rába Mór Kft.",47.410465,18.245304,,
573996,"Pusztavám, Erdősor utca",47.413295,18.250164,,
573997,"Pusztavám, Erdősor utca",47.413495,18.249926,,
573998,"Pusztavám, Tulipán utca",47.416951,18.246277,,
573999,"Pusztavám, Tulipán utca",47.417256,18.245930,,
574000,"Pusztavám, erdészet",47.422489,18.241466,,
574001,"Pusztavám, erdészet",47.422512,18.241515,,
574002,"Pusztavám, Petőfi utca 57.",47.427127,18.236044,,
574003,"Pusztavám, Petőfi utca 57.",47.427335,18.235791,,
574004,"Pusztavám, bányatelepi elágazás",47.430822,18.227903,,
574005,"Pusztavám, bányatelepi elágazás",47.431256,18.228202,,
574006,"Pusztavám, Kossuth utca 140.",47.438075,18.233230,,
574007,"Pusztavám, Kossuth utca 140.",47.438011,18.233280,,
574008,"Bokod, községháza",47.492173,18.242581,,
574009,"Bokod, községháza",47.492505,18.242808,,
574010,"Pusztavám, Május 1. utca",47.423548,18.223720,,
574011,"Pusztavám, Május 1. utca",47.423570,18.223670,,
574012,"Mór, Sövénykút",47.404713,18.161800,,
574013,"Mór, Sövénykút",47.405322,18.160903,,
574014,"Mór, Felsődobos, bejárati út",47.437966,18.116214,,
574016,"Mór, Felsődobos, bejárati út",47.438432,18.116011,,
574017,"Mór, Felsődobos, Fő utca 44.",47.440741,18.121750,,
574018,"Mór, Felsődobos, Fő utca 44.",47.440541,18.121370,,
574019,"Mór, Deák Ferenc utca",47.369246,18.197923,,
574020,"Mór, Deák Ferenc utca",47.369377,18.198331,,
574021,"Mór, vasútállomás bejárati út",47.367168,18.192454,,
574022,"Mór, vasútállomás bejárati út",47.367208,18.192449,,
574023,"Mór, Velegi út 2.",47.365818,18.189864,,
574024,"Mór, Velegi út 2.",47.365442,18.189011,,
574025,"Mór, Velegi úti lakótelep",47.362508,18.183756,,
574026,"Mór, Velegi úti lakótelep",47.362207,18.183115,,
574027,"Nagyveleg, Arany János utca",47.362218,18.117613,,
574028,"Nagyveleg, Arany János utca",47.362129,18.118075,,
574030,"Nagyveleg, Táncsics Mihály utca",47.361995,18.112560,,
574031,"Csókakő, Művelődési Ház",47.349782,18.268673,,
574032,"Csókakő, Művelődési Ház",47.349866,18.268766,,
574034,"Csókakő, községháza",47.353717,18.272617,,
574035,"Csókakő, Jókai Mór utca",47.345368,18.262783,,
574036,"Csókakő, Jókai Mór utca",47.345335,18.262777,,
574037,"Mór, Mónus Illés út",47.378456,18.199189,,
574038,"Mór, Mónus Illés út",47.378193,18.198813,,
574039,"Mór, Felsődobos, forduló",47.447223,18.136672,,
574040,"Mór, Tímárpuszta bejárati út",47.363871,18.165603,,
574041,"Mór, Tímárpuszta bejárati út",47.363332,18.165535,,
574042,"Mór, Tímárpuszta bejárati út",47.363291,18.166640,,
574043,"Mór, Tímárpuszta",47.368604,18.156015,,
574044,"Nagyveleg, községháza",47.360491,18.109088,,
574045,"Söréd, bejárati út",47.319603,18.278898,,
574046,"Söréd, bejárati út",47.320528,18.279262,,
574047,"Söréd, bejárati út",47.320653,18.277833,,
574048,"Dunaújváros, Betonelemgyár",46.943756,18.951175,,
574049,"Dunaújváros, Betonelemgyár",46.943799,18.951073,,
574050,"Dunaújváros, Délivárosi út",46.933164,18.949533,,
574051,"Dunaújváros, Délivárosi út",46.932635,18.947999,,
574052,Kisapostagi elágazás,46.900356,18.924236,,
574053,Kisapostagi elágazás,46.900428,18.925998,,
574054,Kisapostagi elágazás,46.900000,18.923374,,
574055,Kisapostagi elágazás,46.901098,18.923725,,
574056,"Kisapostag, Petőfi utca",46.897403,18.930414,,
574057,"Kisapostag, Petőfi utca",46.896932,18.930774,,
574058,"Dunaújváros, Vasmű tér",46.951416,18.947491,,
574059,"Dunaújváros, Tűzoltó út",46.948613,18.950637,,
574060,"Dunaújváros, Tűzoltó út",46.948040,18.950605,,
574061,"Dunaújváros, autóbusz-állomás",46.958084,18.937641,,687
574062,"Dunaújváros, Közútkezelő",46.938131,18.951710,,
574063,"Dunaújváros, Közútkezelő",46.937637,18.951856,,
574064,"Kisapostag, forduló",46.885148,18.933534,,
574065,"Dunaújváros, Dózsa György út (Egyetem)",46.961858,18.932786,,
574066,"Dunaújváros, Dózsa György út (Egyetem)",46.961887,18.932546,,
574067,"Dunaújváros, vasútállomás",46.960408,18.913532,,
574068,Nagyvenyimi elágazás,46.972651,18.906358,,
574069,Nagyvenyimi elágazás,46.972533,18.905581,,
574070,"Dunaújváros, Kertváros",46.958753,18.921439,,
574071,"Dunaújváros, Kertváros",46.958793,18.920982,,
574072,"Nagyvenyim, Szedrespuszta",46.961857,18.878297,,
574073,"Nagyvenyim, Szedrespuszta",46.962029,18.878498,,
574074,"Nagyvenyim, újtelep",46.957263,18.862449,,
574075,"Nagyvenyim, újtelep",46.956912,18.861304,,
574076,"Nagyvenyim, iskola",46.955587,18.856725,,
574077,"Nagyvenyim, iskola",46.955526,18.854555,,
574079,"Nagyvenyim, iskola",46.955073,18.854714,,
574080,"Nagyvenyim, Zrinyi utca",46.953701,18.851695,,
574081,"Nagyvenyim, Zrinyi utca",46.953388,18.850929,,
574082,"Mezőfalva, szőlőhegy",46.942341,18.810994,,
574083,"Mezőfalva, szőlőhegy",46.942009,18.810264,,
574084,"Mezőfalva, Pálinka-sor",46.939541,18.805278,,
574085,"Mezőfalva, Pálinka-sor",46.939488,18.805025,,
574086,"Mezőfalva, dunaújvárosi elágazás",46.929127,18.786636,,
574087,"Mezőfalva, dunaújvárosi elágazás",46.929472,18.785281,,
574090,"Daruszentmiklós, forduló",46.881956,18.841394,,
574091,"Daruszentmiklós, forduló",46.882298,18.841094,,
574092,"Mezőfalva, ménesmajori elágazás",46.885750,18.837454,,
574093,"Mezőfalva, ménesmajori elágazás",46.886116,18.836658,,
574094,"Mezőfalva, ménesmajori elágazás",46.886570,18.836940,,
574095,"Mezőfalva, Ménesmajor",46.882286,18.818417,,
574096,"Mezőfalva, Baromfitelep",46.903213,18.821125,,
574097,"Mezőfalva, Baromfitelep",46.903403,18.820910,,
574098,"Mezőfalva, fürészüzem",46.906339,18.817291,,
574099,"Mezőfalva, fürészüzem",46.906716,18.816838,,
574100,"Nagykarácsony, sportpálya",46.874618,18.767622,,
574101,"Nagykarácsony, sportpálya",46.874603,18.767568,,
574102,"Nagykarácsony, községháza",46.872382,18.769200,,
574103,"Nagykarácsony, községháza",46.871875,18.769545,,
574104,"Nagykarácsony, Jókai utca",46.869058,18.772886,,
574105,"Nagykarácsony, Jókai utca",46.869056,18.772945,,
574106,"Nagykarácsony, vasúti átjáró",46.866066,18.783341,,
574107,"Nagykarácsony, vasúti átjáró",46.866032,18.783308,,
574108,"Előszállás, Gárdonyi utca",46.839563,18.810795,,
574109,"Előszállás, Gárdonyi utca",46.839226,18.811108,,
574110,"Előszállás, Nagykarácsonyi út",46.835865,18.815095,,
574111,"Előszállás, Nagykarácsonyi út",46.835724,18.815384,,
574112,"Előszállás, vasútállomás",46.832393,18.829682,,
574113,"Előszállás, vasútállomás",46.832282,18.831393,,
574114,"Előszállás, vasútállomás",46.832594,18.830540,,
574115,"Előszállás, Bíbic utca",46.825923,18.861532,,
574116,"Előszállás, Bíbic utca",46.826100,18.860809,,
574117,"Daruszentmiklós, alsó",46.840990,18.852985,,
574118,"Daruszentmiklós, alsó",46.840757,18.853143,,
574119,"Daruszentmiklós, Daru-sor",46.860105,18.841555,,
574120,"Daruszentmiklós, Daru-sor",46.859857,18.841090,,
574121,"Dunaföldvár, Vilmospuszta",46.850194,18.911830,,
574122,"Dunaföldvár, Vilmospuszta",46.851022,18.912058,,
574123,"Kisapostag, községháza",46.894695,18.932101,,
574124,"Kisapostag, községháza",46.894283,18.932347,,
574125,"Kisapostag, alsó",46.890004,18.934514,,
574126,"Kisapostag, alsó",46.889825,18.934606,,
574127,"Baracs, Móricz Zsigmond utca",46.876579,18.910830,,
574128,"Baracs, Móricz Zsigmond utca",46.876630,18.910824,,
574129,"Baracs, gyógyszertár",46.881003,18.907329,,
574130,"Baracs, gyógyszertár",46.880825,18.907463,,
574131,"Baracs, Szent István utca",46.886998,18.902506,,
574132,"Baracs, Szent István utca",46.886859,18.902638,,
574133,"Baracs, Fűzfa utca",46.893635,18.899066,,
574134,"Baracs, Fűzfa utca",46.893672,18.899035,,
574135,"Baracs, Tanácsház utca",46.898454,18.897505,,
574136,"Baracs, Tanácsház utca",46.898358,18.897551,,
574137,"Baracs, Ifjúsági telep",46.903775,18.893972,,
574138,"Baracs, Ifjúsági telep",46.903491,18.894167,,
574139,"Baracs, Ligetsor 8.",46.913016,18.885338,,
574140,"Baracs, Ligetsor 8.",46.913307,18.885163,,
574141,"Baracs, Ligetsor",46.917771,18.880006,,
574142,"Baracs, Ligetsor",46.917739,18.879799,,
574143,"Baracs, Ligetsor",46.918233,18.880728,,
574144,"Baracs, Fehérakác vendéglő",46.911035,18.866488,,
574145,"Baracs, Fehérakác vendéglő",46.910983,18.866349,,
574146,"Baracs, Tópart",46.907881,18.860449,,
574147,"Baracs, Tópart",46.908037,18.860831,,
574148,"Baracs, Kokasdi utca",46.904833,18.851160,,
574149,"Baracs, Rákóczi utca",46.914086,18.872569,,
574150,"Baracs, Rákóczi utca",46.914095,18.872430,,
574151,"Dunaújváros, Szalmacellulóz gyár",46.929291,18.940218,,
574152,"Dunaújváros, Szalmacellulóz gyár",46.929822,18.941596,,
574153,"Nagyvenyim, Bem út",46.957643,18.849790,,
574154,"Nagyvenyim, Bem út",46.957718,18.849660,,
574155,"Nagyvenyim, Fő utca 85.",46.958371,18.844524,,
574156,"Nagyvenyim, Fő utca 85.",46.958322,18.844492,,
574157,"Nagyvenyim, ipartelep",46.958342,18.835571,,
574158,"Mezőfalva, községháza",46.933101,18.780632,,
574159,"Mezőfalva, községháza",46.933149,18.780968,,
574160,"Előszállás, péküzem",46.830849,18.841474,,
574161,"Előszállás, péküzem",46.831165,18.840103,,
574162,"Előszállás, iskola",46.831552,18.821007,,
574163,"Előszállás, iskola",46.832323,18.820141,,
574164,"Daruszentmiklós, Fehérvári utca",46.867755,18.863067,,
574165,"Daruszentmiklós, Fehérvári utca",46.868188,18.862722,,
574166,"Baracs, Üdülőtelep",46.874087,18.918765,,
574167,"Baracs, Üdülőtelep",46.873040,18.918750,,
574168,"Dunaújváros, Dózsa mozi",46.963671,18.941094,,
574169,"Dunaújváros, Dózsa mozi",46.963136,18.941292,,
574170,"Dunaújváros, Liszt Ferenc kert",46.968709,18.937316,,
574171,"Dunaújváros, Liszt Ferenc kert",46.968320,18.937342,,
574173,"Dunaújváros, Baracsi út",46.972926,18.928606,,
574174,"Dunaújváros, Baracsi út",46.972687,18.928540,,
574176,"Székesfehérvár, Jancsár utca",47.182780,18.407336,,
574177,"Székesfehérvár, Jancsár utca",47.182707,18.407126,,
574178,"Szabadbattyán, Szabadság utca",47.114191,18.379215,,
574179,"Szabadbattyán, Szabadság utca",47.114014,18.379386,,
574180,"Szabadbattyán, Gorsium Étterem",47.103390,18.383612,,
574181,"Szabadbattyán, Gorsium Étterem",47.103356,18.383579,,
574182,"Tác, újtelep",47.087682,18.400008,,
574183,"Tác, újtelep",47.087452,18.400254,,
574184,"Tác, Petőfi utca",47.083718,18.405966,,
574185,"Tác, Petőfi utca",47.083525,18.406267,,
574186,"Tác, posta",47.081117,18.409871,,
574187,"Tác, posta",47.081102,18.409855,,
574188,"Csősz, posta",47.037845,18.418304,,
574189,Csőszi elágazás,47.044666,18.429196,,
574190,Csőszi elágazás,47.044218,18.428990,,
574191,Csőszi elágazás,47.044291,18.429558,,
574192,"Soponya, Petőfi utca 21.",47.027754,18.444182,,
574193,"Soponya, Petőfi utca 21.",47.027078,18.444621,,
574194,"Soponya, községháza",47.022644,18.448920,,
574195,"Soponya, községháza",47.022448,18.449071,,
574196,"Soponya, orvosi rendelő",47.011856,18.455448,,
574197,"Soponya, orvosi rendelő",47.011704,18.455538,,
574198,"Soponya, kastély",47.005805,18.463858,,
574199,"Soponya, kastély",47.005626,18.463871,,
574200,"Soponya, újtelep",47.000496,18.463480,,
574201,"Soponya, újtelep",47.000070,18.463720,,
574202,"Káloz, Bodritanya",46.976803,18.477578,,
574203,"Káloz, Bodritanya",46.976302,18.477912,,
574204,"Káloz, sárkeresztúri elágazás",46.965967,18.483936,,
574205,"Káloz, sárkeresztúri elágazás",46.965215,18.484316,,
574206,"Káloz, Bajcsy-Zsilinszky utca",46.957972,18.488906,,
574207,"Káloz, Bajcsy-Zsilinszky utca",46.957958,18.488734,,
574208,"Káloz, Szederfa utca",46.952654,18.494014,,
574209,"Káloz, Szederfa utca",46.952674,18.493994,,
574210,"Káloz, Ezüst-tanya",46.936681,18.504231,,
574211,"Káloz, Ezüst-tanya",46.936672,18.504174,,
574212,"Káloz, kishörcsöki elágazás",46.927095,18.510171,,
574213,"Káloz, kishörcsöki elágazás",46.926681,18.510416,,
574214,"Sárbogárd, Nagyhörcsökpuszta",46.905232,18.519178,,
574215,"Sárbogárd, Nagyhörcsökpuszta",46.905044,18.519223,,
574216,"Sárhatvan, Székelytanya",46.898576,18.522240,,
574217,"Sárhatvan, Székelytanya",46.898788,18.522045,,
574218,"Sárhatvan, József Attila utca 64.",46.878558,18.537418,,
574219,"Sárhatvan, József Attila utca 64.",46.878420,18.537505,,
574220,"Sárhatvan, faluközpont",46.873235,18.540957,,
574221,"Sárhatvan, faluközpont",46.873105,18.541026,,
574222,"Sárhatvan, József Attila utca 1.",46.869623,18.545977,,
574223,"Sárhatvan, József Attila utca 1.",46.869379,18.546312,,
574224,"Örspuszta, pusztaegresi elágazás",46.846695,18.562591,,
574225,"Örspuszta, pusztaegresi elágazás",46.846045,18.562518,,
574226,"Örspuszta, pusztaegresi elágazás",46.846420,18.563168,,
574227,"Sárbogárd, Halastói híd",46.852522,18.577564,,
574228,"Sárbogárd, Halastói híd",46.852439,18.577358,,
574229,"Sárbogárd, Vasút utca 33.",46.851940,18.611528,,
574230,"Sárbogárd, Vasút utca 33.",46.851967,18.611890,,
574235,"Sárbogárd, Széchenyi utca",46.857220,18.636542,,
574236,"Sárbogárd, Széchenyi utca",46.857282,18.636805,,
574237,"Alap, réhpusztai elágazás",46.833223,18.658641,,
574239,"Alap, réhpusztai elágazás",46.833094,18.658889,,
574240,"Alap, Alpek-tanya",46.827694,18.663441,,
574241,"Alap, Alpek-tanya",46.827354,18.663447,,
574242,"Alap, Fő út 32.",46.819770,18.666119,,
574243,"Alap, Fő út 32.",46.819800,18.666079,,
574244,"Alap, művelődési ház",46.809106,18.679536,,
574245,"Alap, művelődési ház",46.808680,18.679887,,
574246,"Alap, Béke utca",46.803400,18.684564,,
574247,"Alap, Béke utca",46.802818,18.685037,,
574248,"Alap, Petőfi Sándor utca",46.798639,18.690467,,
574249,"Alap, Petőfi Sándor utca",46.798122,18.690886,,
574250,"Alap, bejárati út",46.791023,18.694736,,
574251,"Alap, bejárati út",46.790976,18.696584,,
574252,"Alap, bejárati út",46.789697,18.693594,,
574253,"Alsószentiván, Dózsatelep",46.797226,18.708442,,
574254,"Alsószentiván, Dózsatelep",46.798272,18.710623,,
574255,"Alsószentiván, Artézi kút",46.796358,18.730057,,
574256,"Alsószentiván, Artézi kút",46.794838,18.732308,,
574257,"Alsószentiván, Artézi kút",46.795875,18.733989,,
574258,"Alsószentiván, Rákóczi utca",46.797185,18.736286,,
574259,"Alsószentiván, Rákóczi utca",46.797982,18.737893,,
574260,"Sáregres, Kodály Zoltán utca",46.779059,18.598136,,
574261,"Sáregres, Kodály Zoltán utca",46.779287,18.598073,,
574262,"Sáregres, Ady Endre utca 8.",46.786760,18.590034,,
574263,"Sáregres, Ady Endre utca 8.",46.787095,18.589934,,
574264,"Sáregres, Aradi utca",46.791693,18.587683,,
574265,"Sáregres, Aradi utca",46.792242,18.587570,,
574266,"Cece, Deák Ferenc utca 123.",46.757705,18.638225,,
574267,"Cece, Deák Ferenc utca 123.",46.757133,18.638517,,
574268,"Vajta, Marton-tanya",46.740861,18.652813,,
574269,"Vajta, Marton-tanya",46.740024,18.653878,,
574270,"Vajta, fürdő",46.725207,18.660632,,
574271,"Vajta, fürdő",46.724484,18.660818,,
574272,"Vajta, Szabadság tér",46.717966,18.664689,,
574273,"Vajta, Szabadság tér",46.718091,18.663810,,
574274,"Vajta, Szabadság tér",46.717410,18.664697,,
574275,"Vajta, Szabadság tér",46.718012,18.664190,,
574276,"Vajta, Petőfi Sándor utca 57.",46.710493,18.666295,,
574277,"Vajta, Petőfi Sándor utca 57.",46.710214,18.666255,,
574280,"Vajta, vasútállomás",46.715841,18.649071,,
574281,"Vajta, vasútállomás",46.715907,18.649225,,
574282,"Cece, Illyés Gyula utca",46.765897,18.631375,,
574283,"Cece, Illyés Gyula utca",46.765291,18.631686,,
574284,"Cece, paksi útelágazás",46.763273,18.635169,,
574285,"Cece, paksi útelágazás",46.763354,18.635034,,
574286,"Cece, temető",46.764052,18.641075,,
574287,"Cece, temető",46.764034,18.641128,,
574290,Felsőmenyődpuszta,46.744825,18.693591,,
574291,Felsőmenyődpuszta,46.744807,18.693618,,
574292,"Németkér (Hard), autóbusz-váróterem",46.729832,18.748469,,
574293,"Németkér (Hard), autóbusz-váróterem",46.729586,18.748759,,
574294,"Tác, Világospuszta bejárati út",47.068625,18.416605,,
574295,"Tác, Világospuszta bejárati út",47.068895,18.416528,,
574296,"Káloz, Szent István tér",46.955173,18.483515,,
574297,"Káloz, Szent István tér",46.955257,18.483895,,
574298,"Káloz, Szent István tér",46.954997,18.483757,,
574299,"Alsószentiván, Ady Endre utca",46.786383,18.729729,,
574300,"Cece, vasútállomás",46.773058,18.623389,,
574301,Sáregresi elágazás,46.767736,18.605649,,
574302,Sáregresi elágazás,46.768300,18.605818,,
574303,Sáregresi elágazás,46.767026,18.607734,,
574304,"Simontornya, autóbusz-váróterem",46.753669,18.554828,,4990
574305,"Simontornya, autóbusz-váróterem",46.753788,18.554967,,4990
574306,"Cece, vasútállomás bejárati út",46.771042,18.624850,,
574307,"Székesfehérvár, Fiskális út",47.195007,18.446719,,
574308,"Székesfehérvár, Fiskális út",47.195885,18.447330,,
574309,"Székesfehérvár, Fiskális út",47.194839,18.447891,,
574310,"Székesfehérvár, VIDEOTON",47.206241,18.439060,,
574311,"Székesfehérvár, VIDEOTON",47.206477,18.439125,,
574312,"Seregélyes, dinnyési elágazás",47.111976,18.590954,,
574313,"Seregélyes, dinnyési elágazás",47.111856,18.593089,,
574314,"Seregélyes, Dinnyési út",47.110912,18.601345,,
574315,"Seregélyes, Dinnyési út",47.110609,18.603733,,
574316,"Seregélyes (Szőlőhegy), iskola",47.109304,18.615503,,
574317,"Seregélyes (Szőlőhegy), iskola",47.109015,18.617094,,
574318,"Szabadegyháza, sárosdi elágazás",47.082276,18.679801,,
574319,"Szabadegyháza, sárosdi elágazás",47.082143,18.679794,,
574320,"Szabadegyháza, iskola",47.076557,18.684341,,
574321,"Szabadegyháza, iskola",47.075337,18.685402,,
574322,"Szabadegyháza, posta",47.075795,18.690706,,
574323,"Szabadegyháza, posta",47.076041,18.691133,,
574324,"Szabadegyháza, újtelep",47.078761,18.697610,,
574325,"Szabadegyháza, újtelep",47.078904,18.698078,,
574326,"Szabadegyháza, vasútállomás",47.083016,18.704244,,
574327,"Szabadegyháza, vasútállomás",47.082991,18.704291,,
574329,"Szabadegyháza, vasútállomás bejárati út",47.085682,18.706352,,
574331,"Szabadegyháza, vasútállomás bejárati út",47.085480,18.706595,,
574332,"Szabadegyháza, szeszgyár",47.081256,18.720659,,
574333,"Szabadegyháza, szeszgyár",47.080734,18.721852,,
574334,"Perkáta, Fehérvári utca",47.055616,18.770663,,
574335,"Perkáta, Fehérvári utca",47.055832,18.771625,,
574336,"Perkáta, Dózsa György utca",47.052825,18.784536,,
574337,"Perkáta, Dózsa György utca",47.052252,18.785206,,
574338,"Perkáta, iskola",47.048646,18.789388,,
574339,"Perkáta, iskola",47.049218,18.788735,,
574340,"Perkáta, Patkó büfé",47.045890,18.787881,,
574341,"Perkáta, Patkó büfé",47.045649,18.788100,,
574342,"Perkáta, Széchenyi István utca 55.",47.040938,18.792507,,
574343,"Perkáta, Széchenyi István utca 55.",47.040808,18.792621,,
574344,"Perkáta, Bajcsy-Zsilinszky Endre utca",47.038099,18.784743,,
574345,"Perkáta, Bajcsy-Zsilinszky Endre utca",47.038394,18.784319,,
574346,"Perkáta, Sport utca",47.044841,18.778130,,
574347,"Perkáta, Sport utca",47.045508,18.777623,,
574348,"Perkáta, Rózsa Ferenc utca",47.049268,18.774046,,
574349,"Perkáta, Rózsa Ferenc utca",47.049775,18.773571,,
574350,"Perkáta, Hangos bejárati út",47.019509,18.847197,,
574351,"Perkáta, Hangos bejárati út",47.018567,18.847904,,
574352,"Dunaújváros, mélykúti elágazás",47.005782,18.867522,,
574353,"Dunaújváros, mélykúti elágazás",47.004982,18.868621,,
574354,"Dunaújváros, mélykúti elágazás",47.005169,18.867524,,
574355,"Nagyvenyim, Mélykútpuszta",46.986199,18.790600,,
574356,"Nagyvenyim, Mélykútpuszta",46.986210,18.790707,,
574357,"Nagyvenyim, Bernátkúti BV intézet",47.001066,18.847409,,
574358,"Nagyvenyim, Bernátkúti BV intézet",47.001141,18.847801,,
574359,"Dunaújváros, Pálhalma bejárati út",46.988281,18.898030,,
574360,"Dunaújváros, Pálhalma bejárati út",46.987576,18.898028,,
574361,"Dunaújváros, Pálhalma bejárati út",46.987526,18.898961,,
574364,"Dunaújváros, külső vasúti megállóhely",46.982100,18.906000,,
574365,"Dunaújváros, külső vasúti megállóhely",46.982045,18.905832,,
574366,"Dunaújváros, Ady Endre utca",46.959629,18.944372,,
