stop_id,stop_name,stop_lat,stop_lon,location_type,parent_station,platform_code
1,"15,3-as km kő",47.096432,20.713730,,,
10,"55,7-es km kő",46.879195,20.325845,,,
100,"Abasár, Tatármező",47.807200,20.025937,,,
1000,Alsószállási iskola,46.403496,19.556094,,,
10000,"Farkasgyepű, posta",47.203501,17.631587,,,
10001,"Farkasgyepű, TBC Gyógyintézet",47.210858,17.622026,,,
10002,"Farkasgyepű, TBC Gyógyintézet",47.210161,17.622681,,,
10003,"Farkaslyuk, autóbusz-váróterem",48.186869,20.311090,,,
10004,"Farkaslyuk, autóbusz-váróterem",48.186875,20.311230,,,
10005,"Farkaslyuk, Boroszló telep",48.188849,20.305885,,,
10006,"Farkaslyuk, Boroszló telep",48.188651,20.306597,,,
10007,"Farkaslyuk, Eperjes dülő",48.192872,20.300433,,,
10008,"Farkaslyuk, Eperjes dülő",48.193059,20.300428,,,
10009,"Farkaslyuk, Görgei utca",48.179216,20.308338,,,
1001,"Alsószend, bejárati út",48.379014,21.131472,,,
10010,"Farkaslyuk, Idősek otthona",48.186057,20.312923,,,
10011,"Farkaslyuk, újtelep",48.184538,20.309200,,,
10012,"Farkaslyuk, újtelep",48.185283,20.309611,,,
10013,"Farkaslyuk, Vájár utca",48.183255,20.310848,,,
10014,Farkas tanya (5205 sz. út),47.053459,19.307763,,,
10015,Farkas tanya (5205 sz. út),47.053494,19.307792,,,
10016,"Farmos, 4. sz. bolt",47.382077,19.885914,,,
10018,"Farmos, Hudra-dűlő",47.379380,19.878669,,,
1002,"Alsószend, bejárati út",48.378747,21.131561,,,
10020,"Farmos, községháza",47.361416,19.847078,,,
10021,"Farmos, községháza",47.360906,19.847459,,,
10022,"Farmos, községháza",47.361641,19.846192,,,
10023,"Farmos, községháza",47.361704,19.846235,,,
10024,"Farmos, Szabadság út",47.373827,19.867187,,,
10026,"Farmos, Szelei út",47.355591,19.853589,,,
10027,"Farmos, Szelei út",47.355124,19.853973,,,
10028,"Farmos, tüzép",47.366591,19.856427,,,
10029,"Farmos, tüzép",47.366403,19.856037,,,
1003,"Alsószenterzsébet, autóbusz-váróterem",46.745542,16.477362,,,
10030,"Farmos, vasúti megállóhely",47.355630,19.839947,,,
10031,"Farmos, vasúti megállóhely",47.355889,19.840182,,,
10032,Fáy András körút 20.,48.117325,19.801972,,,
10033,Fáy András körút 90.,48.118104,19.803717,,,
10034,"Fazekasboda, Rét utca",46.123161,18.484293,,,
10035,"Fazekasboda, Rét utca",46.123083,18.484202,,,
10036,Fazekas-zugi csatorna,46.894334,20.707203,,,
10037,Fazekas-zugi csatorna,46.894367,20.707185,,,
10038,Fecskeparti lakótelep,47.208382,18.403113,,,
10039,"Fedémes, autóbusz-váróterem",48.034256,20.192019,,,
1004,"Alsószenterzsébet, temető",46.745798,16.470376,,,
10040,"Fedémes, autóbusz-váróterem",48.034271,20.192298,,,
10042,"Fedémes, italbolt",48.030803,20.184219,,,
10043,"Fedémes, Kutos tanya",48.042986,20.185229,,,
10044,"Fedémes, Kutos tanya",48.043018,20.185266,,,
10045,"Fegyvernek, Béke utca",47.269336,20.524202,,,
10046,"Fegyvernek, Béke utca",47.268921,20.524227,,,
10048,Fegyverneki elágazás,47.237342,20.535267,,,
1005,"Alsószenterzsébet, temető",46.745802,16.470308,,,
10051,"Fegyvernek, Móra Ferenc Általános Iskola",47.247568,20.528422,,,
10052,"Fegyvernek, Móra Ferenc Általános Iskola",47.246903,20.528722,,,
10054,Fegyvernek-Örményes vasútállomás,47.194767,20.558579,,,
10055,"Fegyvernek-Örményes, vasútállomás bejárati út",47.194053,20.551763,,,
10056,"Fegyvernek-Örményes, vasútállomás bejárati út",47.194401,20.551750,,,
10058,"Fegyvernek-Örményes, vasútállomás bejárati út",47.193642,20.552233,,,
10059,"Fegyvernek, orvosi rendelő",47.256357,20.522415,,,
1006,"Alsószentiván, Ady Endre utca",46.786383,18.729729,,,
10060,"Fegyvernek, orvosi rendelő",47.257318,20.522622,,,
10061,"Fegyvernek, piactér",47.260747,20.523468,,,
10062,"Fegyvernek, piactér",47.261295,20.523492,,,
10063,"Fegyvernek (Szapárfalu), Asztalos utca",47.229607,20.516379,,,
10064,"Fegyvernek (Szapárfalu), Asztalos utca",47.229725,20.516616,,,
10065,"Fegyvernek (Szapárfalu), közösségi ház",47.233036,20.523835,,,
10066,"Fegyvernek (Szapárfalu), közösségi ház",47.233571,20.524984,,,
10067,"Fehérgyarmat, Alkotmány utca 16.",47.987074,22.520319,,,
10068,"Fehérgyarmat, Alkotmány utca 16.",47.987101,22.520275,,,
1007,"Alsószentiván, Artézi kút",46.796358,18.730057,,,
10070_1,"Fehérgyarmat, autóbusz-állomás",47.989981,22.515626,,41313,1
10070_10,"Fehérgyarmat, autóbusz-állomás",47.989981,22.515626,,41313,10
10070_2,"Fehérgyarmat, autóbusz-állomás",47.989981,22.515626,,41313,2
10070_3,"Fehérgyarmat, autóbusz-állomás",47.989981,22.515626,,41313,3
10070_4,"Fehérgyarmat, autóbusz-állomás",47.989981,22.515626,,41313,4
10070_5,"Fehérgyarmat, autóbusz-állomás",47.989981,22.515626,,41313,5
10070_6,"Fehérgyarmat, autóbusz-állomás",47.989981,22.515626,,41313,6
10070_7,"Fehérgyarmat, autóbusz-állomás",47.989981,22.515626,,41313,7
10070_8,"Fehérgyarmat, autóbusz-állomás",47.989981,22.515626,,41313,8
10070_9,"Fehérgyarmat, autóbusz-állomás",47.989981,22.515626,,41313,9
10071,"Fehérgyarmat, családsegítő központ",47.983297,22.519273,,,
10072,"Fehérgyarmat, családsegítő központ",47.983421,22.519251,,,
10073,"Fehérgyarmat, Esze Tamás utca 30.",48.001992,22.508742,,,
10074,"Fehérgyarmat, Esze Tamás utca 30.",48.001837,22.508651,,,
10075,"Fehérgyarmat, Fipkersz",47.969825,22.533409,,,
10076,"Fehérgyarmat, Fipkersz",47.969869,22.533279,,,
10077,"Fehérgyarmat, Gabonaforgalmi Vállalat",47.976469,22.524010,,,
10078,"Fehérgyarmat, Gabonaforgalmi Vállalat",47.976261,22.524211,,,
10079,"Fehérgyarmat, gimnázium",47.985910,22.516142,,,
1008,"Alsószentiván, Artézi kút",46.794838,18.732308,,,
10080,"Fehérgyarmat, gimnázium",47.985646,22.516260,,,
10081,"Fehérgyarmat, József Attila utca 56.",48.001200,22.502089,,,
10082,"Fehérgyarmat, József Attila utca 56.",48.001164,22.502236,,,
10083,"Fehérgyarmat, kórház",47.994475,22.510661,,,
10084,"Fehérgyarmat, kórház",47.994400,22.510531,,,
10085,"Fehérgyarmat, Mártírok utca 5.",47.983303,22.510242,,,
10086,"Fehérgyarmat, Mártírok utca 5.",47.983260,22.509953,,,
10087,"Fehérgyarmat, RELABOR",47.962637,22.541969,,,
10088,"Fehérgyarmat, RELABOR",47.962429,22.542148,,,
10089,"Fehérgyarmat, téglagyár",47.974240,22.527176,,,
1009,"Alsószentiván, Artézi kút",46.795875,18.733989,,,
10090,"Fehérgyarmat, téglagyár",47.974208,22.527114,,,
10091,"Fehérgyarmat, vasútállomás bejárati út",47.978567,22.520713,,,
10092,"Fehérgyarmat, vasútállomás bejárati út",47.978824,22.520620,,,
10093,"Fehértó, 4. ház",47.673809,17.332896,,,
10094,"Fehértó, 4. ház",47.673769,17.332783,,,
10095,"Fehértó, felső",47.675892,17.339575,,,
10096,"Fehértó, felső",47.675960,17.339682,,,
10097,"Fehértó, vendéglő",47.676108,17.347616,,,
10098,"Fehértó, vendéglő",47.676164,17.347400,,,
10099,"Fehérvárcsurgó, Atyamajor",47.273819,18.291378,,,
101,"Abasár, Tiszti lakótelep",47.803868,20.010895,,,
1010,"Alsószentiván, Dózsatelep",46.797226,18.708442,,,
10100,"Fehérvárcsurgó, Atyamajor",47.273918,18.291375,,,
10101,"Fehérvárcsurgó, guttamási elágazás",47.295630,18.262114,,,
10102,"Fehérvárcsurgó, guttamási elágazás",47.294954,18.262797,,,
10103,"Fehérvárcsurgó, Igarpuszta",47.286474,18.299845,,,
10104,"Fehérvárcsurgó, Igarpuszta",47.286920,18.300786,,,
10105,"Fehérvárcsurgó, igarpusztai elágazás",47.285396,18.276072,,,
10106,"Fehérvárcsurgó, igarpusztai elágazás",47.285637,18.274997,,,
10107,"Fehérvárcsurgó, igarpusztai elágazás",47.285181,18.276128,,,
10108,"Fehérvárcsurgó, kastély",47.289337,18.269359,,,
10109,"Fehérvárcsurgó, kastély",47.288954,18.269351,,,
1011,"Alsószentiván, Dózsatelep",46.798272,18.710623,,,
10110,"Fehérvárcsurgó, Moharakodó",47.266752,18.314838,,,
10111,"Fehérvárcsurgó, Moharakodó",47.266746,18.314749,,,
10112,"Fehérvárcsurgó, TÜZÉP",47.309264,18.252701,,,
10113,"Fehérvárcsurgó, TÜZÉP",47.308998,18.252881,,,
10114,"Fehérvárcsurgó, vasúti átjáró",47.285909,18.290926,,,
10115,"Fehérvárcsurgó, vasúti átjáró",47.285857,18.290388,,,
10116,"Feked, forduló",46.160894,18.558854,,,
10117,Fekedi bejárati út,46.153760,18.560028,,,
10118,Fekedi bejárati út,46.153388,18.559205,,,
10119,Fekedi bejárati út,46.153316,18.559212,,,
1012,"Alsószentiván, Rákóczi utca",46.797185,18.736286,,,
10120,Fekedi bejárati út,46.153778,18.559989,,,
10121,"Feketeerdő, autóbusz-váróterem",47.935559,17.277879,,,
10122,"Feketeerdő, autóbusz-váróterem",47.935580,17.277755,,,
10123,"Feketeerdő, vízmű",47.920189,17.282801,,,
10124,"Feketeerdő, vízmű",47.919873,17.282786,,,
10125,Feketefenyő utca,46.664904,21.133607,,,
10126,Feketefenyő utca,46.664893,21.133746,,,
10127,"Felcsút, bejárati út",47.470159,18.579259,,,
10128,"Felcsút, bejárati út",47.469022,18.578736,,,
10129,"Felcsút, bejárati út",47.468759,18.580674,,,
1013,"Alsószentiván, Rákóczi utca",46.797982,18.737893,,,
10130,"Felcsút, iskola",47.459706,18.585703,,,
10131,"Felcsút, iskola",47.459363,18.585777,,,
10132,"Felcsút, községháza",47.451100,18.586886,,,
10133,"Felcsút, községháza",47.450796,18.586945,,,
10134,"Felcsút, Pancho Aréna",47.463983,18.584501,,,
10135,"Felcsút, Pancho Aréna",47.463529,18.584448,,,
10136,"Felcsút, vasútállomás bejárati út",47.441948,18.587275,,,
10137,"Felcsút, vasútállomás bejárati út",47.441574,18.586995,,,
10138,"Feldebrő, Kossuth út 120.",47.820965,20.231109,,,
10139,"Feldebrő, Kossuth út 120.",47.820806,20.231103,,,
1014,"Alsószentmárton, Dankó utca",45.790978,18.305849,,,
10140,"Feldebrő, községháza",47.814915,20.232283,,,
10141,"Feldebrő, községháza",47.814761,20.232347,,,
10142,"Feldebrő, vécsi elágazás",47.811589,20.228854,,,
10143,"Feldebrő, vécsi elágazás",47.811478,20.228756,,,
10144,Félegyházi vízfolyás,46.821656,19.666625,,,
10145,Félegyházi vízfolyás,46.821627,19.666584,,,
10146,"Felgyő, 2-es km-kő (45119. sz. út)",46.661643,20.089287,,,
10147,"Felgyő, 2-es km-kő (45119. sz. út)",46.661641,20.089204,,,
10148,"Felgyő, 7-es km-kő (4519. sz. út)",46.651413,20.113034,,,
10149,"Felgyő, 7-es km-kő (4519. sz. út)",46.651642,20.113056,,,
1015,"Alsószentmárton, Dankó utca",45.790832,18.305732,,,
10150,"Felgyő, autóbusz-váróterem",46.666704,20.114192,,,
10151,"Felgyő, autóbusz-váróterem",46.666767,20.114022,,,
10152,"Felgyő, Császár út",46.654744,20.069219,,,
10153,"Felgyő, Császár út",46.654753,20.069349,,,
10154,"Felgyő, Felsőmajor",46.619986,20.095776,,,
10155,"Felgyő, Felsőmajor",46.620082,20.095692,,,
10156,"Felgyő, gátéri átjáró",46.650524,20.057050,,,
10157,"Felgyő, gátéri átjáró",46.650511,20.057104,,,
10158,Felgyői útászház,46.627659,20.097824,,,
10159,Felgyői útászház,46.627731,20.097731,,,
1016,Alsószenttamás,46.982801,19.142115,,,
10160,"Felgyő, magtár",46.659688,20.065670,,,
10161,"Felgyő, Majsai út",46.664023,20.096316,,,
10162,"Felgyő, Majsai út",46.663904,20.095822,,,
10163,"Felgyő, Maszlaghalmi iskola",46.657990,20.078673,,,
10164,"Felgyő, Maszlaghalmi iskola",46.657959,20.078449,,,
10165,"Felgyő, Maszlaghalmi-tanyák",46.642750,20.053653,,,
10166,"Felgyő, Maszlaghalmi-tanyák",46.642702,20.053629,,,
10167,"Felgyő, Maszlaghalom, Balog-tanya",46.637895,20.052683,,,
10168,"Felgyő, posta",46.665399,20.109757,,,
10169,"Felgyő, posta",46.665311,20.109728,,,
1017,Alsószenttamás,46.982838,19.142070,,,
10170,"Felgyő, Tóth-dűlő",46.639654,20.107502,,,
10171,"Felgyő, Tóth-dűlő",46.639400,20.107309,,,
10172,"Félixháza, bejárati út",46.817095,19.048924,,,
10173,"Félixháza, bejárati út",46.816696,19.048622,,,
10174,Fellner Jakab utca,47.638720,18.306016,,,
10176,"Felnémet, Alvégi utca",47.937405,20.365421,,,
10177,"Felnémet, Alvégi utca",47.937755,20.365392,,,
10178,"Felnémet, Béke út",47.936044,20.359357,,,
10179,"Felnémet, Bervai út",47.949576,20.375670,,,
1018,Alsószögi szőlők,47.007519,19.128734,,,
10180,"Felnémet, Bervai út",47.949702,20.375606,,,
10181,"Felnémet, Egri út",47.927662,20.368706,,,
10182,"Felnémet, Egri út",47.927298,20.368478,,,
10183,"Felnémet, felsőtárkányi elágazás",47.933922,20.368087,,,
10184,"Felnémet, felsőtárkányi elágazás",47.935043,20.367757,,,
10185,"Felnémet, Felvégi út",47.941380,20.359754,,,
10186,"Felnémet, Felvégi út",47.941510,20.360104,,,
10187,"Felnémet, József Attila utca",47.936300,20.365256,,,
10188,"Felnémet, kőbánya bejáró út",47.955637,20.374775,,,
10189,"Felnémet, kőbánya bejáró út",47.955945,20.374802,,,
1019,Alsószögi szőlők,47.007500,19.128626,,,
10190,"Felnémet, Kovács Jakab út",47.940978,20.365402,,,
10191,"Felnémet, Kovács Jakab út",47.940845,20.365482,,,
10192,"Felnémet, Pásztorvölgy lakótelep",47.938357,20.359700,,,
10193,"Felnémet, Pásztorvölgy lakótelep",47.939244,20.359864,,,
10194,"Felnémet, Sánc út",47.941381,20.374876,,,
10195,"Felnémet, Sánc út",47.941754,20.375497,,,
10196,"Felnémet, Tárkányi út",47.938820,20.371659,,,
10197,"Felnémet, Tárkányi út",47.939409,20.372511,,,
10198,"Felpéc, Borsos út",47.521380,17.607754,,,
10199,"Felpéc, Borsos út",47.521988,17.607209,,,
102,"Abasár, Tiszti lakótelep",47.803510,20.009938,,,
1020,"Alsószölnök, autóbusz-váróterem",46.927748,16.203179,,,
10200,Felpéci elágazás,47.528051,17.602022,,,
10201,Felpéci elágazás,47.528094,17.602106,,,
10202,"Felpéc, óvoda",47.519617,17.601139,,,
10203,"Felpéc, óvoda",47.519707,17.601293,,,
10204,"Felpéc, szőlőhegy",47.541526,17.603661,,,
10205,"Felpéc, szőlőhegy",47.541614,17.603733,,,
10206,"Felpéc, vendéglő",47.524088,17.595874,,,
10207,"Felpéc, vendéglő",47.524292,17.595699,,,
10208,Felsőadacsi útelágazás,46.980024,19.262442,,,
10209,Felsőadacsi útelágazás,46.979989,19.262411,,,
1021,"Alsószölnök, autóbusz-váróterem",46.927780,16.203250,,,
10210,Felsőbabád,47.252563,19.227286,,,
10211,Felsőbabád,47.252211,19.227874,,,
10212,Felsőbabádi elágazás,47.258545,19.220099,,,
10213,Felsőbabádi elágazás,47.259722,19.221796,,,
10214,Felsőbabádi elágazás,47.259496,19.221415,,,
10215,Felsőbabádi elágazás,47.258520,19.219711,,,
10216,Felsőbabádi elágazás,47.259429,19.220306,,,
10217,Felsőbabádi elágazás,47.259724,19.220173,,,
10218,"Felsőberecki, Kossuth utca 97.",48.356352,21.695286,,,
10219,"Felsőberecki, Kossuth utca 97.",48.356060,21.695310,,,
1022,"Alsószölnök, felső",46.898283,16.191337,,,
10220,"Felsőberecki, községháza",48.361509,21.693797,,,
10222,"Felsőberecki, rév",48.362467,21.684956,,,
10223,"Felsőberecki, rév",48.362089,21.685114,,,
10224,Felsőbodoglári iskola,46.537211,19.595968,,,
10226,Felsőbodoglári iskola,46.537250,19.595985,,,
10227,Felsőbodoglári iskola,46.536972,19.595918,,,
10228,Felsőcsábor,46.582041,19.331471,,,
10229,Felsőcsábor,46.581372,19.330430,,,
1023,"Alsószölnök, felső",46.898372,16.191357,,,
10230,"Felsőcsatár, Arany János utca",47.218169,16.442447,,,
10231,"Felsőcsatár, Arany János utca",47.218179,16.442504,,,
10232,"Felsőcsatár, Glavica",47.211063,16.444134,,,
10233,"Felsőcsatár, Glavica",47.210919,16.444221,,,
10234,"Felsőcsatár, iskola",47.213940,16.444691,,,
10235,"Felsőcsatár, iskola",47.213942,16.444750,,,
10236,"Felsődobsza, autóbusz-forduló",48.257121,21.077240,,,
10237,"Felsődobsza, Kossuth utca 94.",48.253282,21.068182,,,
10238,"Felsődobsza, Kossuth utca 94.",48.253187,21.067797,,,
10239,"Felsődobsza, óvoda",48.254737,21.074019,,,
1024,"Alsószőlők, vegyesbolt",46.895729,19.262725,,,
10240,"Felsődobsza, óvoda",48.254847,21.073917,,,
10241,"Felsőegerszeg, forduló",46.254078,18.133365,,,
10242,Felsőerek,46.605964,19.081386,,,
10243,"Felsőfarkasd, autóbusz-forduló",47.407674,19.481040,,,
10244,Felsőfarkasdi elágazás,47.388689,19.500238,,,
10245,Felsőfarkasdi elágazás,47.388790,19.500252,,,
10246,"Felsőfarkasd, kereszt",47.404244,19.488420,,,
10247,"Felsőfarkasd, kereszt",47.404119,19.488803,,,
10248,"Felsőfarkasd, tehenészet",47.395100,19.495047,,,
10249,"Felsőfarkasd, tehenészet",47.394998,19.495172,,,
1025,"Alsószőlők, vegyesbolt",46.895540,19.261949,,,
10250,"Felsőgagy, Arany János utca",48.427177,21.013386,,,
10251,"Felsőgagy, Arany János utca",48.426912,21.013079,,,
10252,"Felsőgagy, csenyétei elágazás",48.431381,21.016309,,,
10253,"Felsőgagy, csenyétei elágazás",48.431066,21.016029,,,
10254,Felső-galambosi gazdakör,46.689847,19.788559,,,
10255,Felső-galambosi gazdakör,46.689819,19.788499,,,
10256,Felsőidegér 1.,48.106365,19.790766,,,
10257,"Felsőjánosfa, csödei elágazás",46.844000,16.540825,,,
10258,"Felsőjánosfa, csödei elágazás",46.843902,16.541748,,,
10259,"Felsőjánosfa, Kossuth utca",46.850074,16.554269,,,
1026,"Alsószuha, autóbusz-váróterem",48.371660,20.504350,,,
10260,"Felsőjánosfa, Kossuth utca",46.850062,16.554325,,,
10261,"Felsőjánosfa, kultúrház",46.843218,16.553119,,,
10262,"Felsőjánosfa, kultúrház",46.843226,16.553177,,,
10263,"Felsőjánosfa, Petőfi utca 10.",46.843127,16.548342,,,
10264,"Felsőjánosfa, Petőfi utca 10.",46.843010,16.548613,,,
10265,Felső-Katalin,47.952131,19.825765,,,
10266,Felső-Katalin,47.952117,19.825988,,,
10267,"Felsőkéked, autóbusz-forduló",48.555059,21.344516,,,
10268,"Felsőkelecsény, ÁG",48.363706,20.587359,,,
10269,"Felsőkelecsény, ÁG",48.363408,20.587480,,,
1027,"Alsószuha, autóbusz-váróterem",48.371737,20.504362,,,
10270,"Felsőkelecsény, bejárati út",48.360077,20.589203,,,
10271,"Felsőkelecsény, bejárati út",48.358897,20.589761,,,
10272,Felsőkistelek,46.484859,19.456742,,,
10273,Felsőkistelek,46.485797,19.456236,,,
10274,"Felsőkörtvélyes, vasútállomás bejárati út",46.939374,18.594581,,,
10275,"Felsőkörtvélyes, vasútállomás bejárati út",46.940300,18.594222,,,
10276,"Felsőlajos, Fő utca",47.063471,19.496635,,,
10277,"Felsőlajos, Fő utca",47.063358,19.496823,,,
10278,"Felsőlajos, vasúti megállóhely",47.068847,19.498121,,,
10279,"Felsőlajos, vasúti megállóhely",47.068541,19.498147,,,
1028,"Alsószuha, major",48.368175,20.507948,,,
10280,"Felsőlajos, vendéglő",47.067893,19.497903,,,
10282,"Felsőmarác, alsó",46.937839,16.520033,,,
10283,"Felsőmarác, alsó",46.937890,16.520038,,,
10284,"Felsőmarác, autóbusz-forduló",46.926244,16.515288,,,
10285,"Felsőmarác, Fő utca 170.",46.928722,16.517318,,,
10286,"Felsőmarác, Fő utca 170.",46.928885,16.517502,,,
10287,Felsőmaráci elágazás,46.959256,16.512791,,,
10288,Felsőmaráci elágazás,46.959309,16.512666,,,
10289,"Felsőmarác, községháza",46.932998,16.519232,,,
1029,"Alsószuha, major",48.368148,20.508110,,,
10290,"Felsőmarác, községháza",46.933118,16.519277,,,
10291,"Felsőméntelek, autóbusz-forduló",46.986906,19.558616,,,
10292,"Felsőméntelek, autóbusz-forduló",46.987128,19.558388,,,
10293,Felsőmenyődpuszta,46.744825,18.693591,,,
10294,Felsőmenyődpuszta,46.744807,18.693618,,,
10295,"Felsőmocsolád, felső",46.580757,17.824813,,,
10296,"Felsőmocsolád, Hősök tere",46.576037,17.824433,,,
10297,"Felsőmocsolád, Hősök tere",46.576062,17.824407,,,
10298,"Felsőmocsolád(Kisbabapuszta), forduló",46.578554,17.803138,,,
10299,"Felsőmocsolád, vasútállomás",46.561803,17.821577,,,
103,"Abasár, Vizespince",47.784127,19.969236,,,
1030,Alsótekeres,46.957395,18.187601,,,
10300,"Felsőmocsolád, vasútállomás",46.561412,17.821618,,,
10301,Felsőmonostor,46.690520,19.689305,,,
10302,Felsőmonostor,46.690753,19.689916,,,
10303,"Felsőnána, alsó",46.461456,18.531210,,,
10304,"Felsőnána, alsó",46.461292,18.531256,,,
10305,Felsőnánai elágazás,46.446849,18.512671,,,
10306,Felsőnánai elágazás,46.446545,18.511885,,,
10307,Felsőnánai elágazás,46.446849,18.512705,,,
10308,Felsőnánai elágazás,46.446565,18.512195,,,
10309,"Felsőnána, községháza",46.466586,18.529050,,,
1031,Alsótekeres,46.957425,18.187530,,,
10310,"Felsőnyárád, autóbusz-váróterem",48.336386,20.601621,,,
10311,"Felsőnyárád, autóbusz-váróterem",48.336034,20.601481,,,
10312,"Felsőnyárád, dövényi elágazás",48.328666,20.599386,,,
10313,"Felsőnyárád, dövényi elágazás",48.328876,20.598874,,,
10314,"Felsőnyárád, iskola",48.330685,20.599285,,,
10315,"Felsőnyárád, iskola",48.330330,20.598966,,,
10316,"Felsőnyáregyháza, autóbusz-forduló",47.278572,19.470862,,,
10317,"Felsőnyáregyháza, autóbusz-forduló",47.278881,19.470164,,,
10318,"Felsőnyáregyháza, Tsz. major",47.278843,19.480044,,,
10319,"Felsőnyáregyháza, Tsz. major",47.279173,19.480436,,,
1032,"Alsótelekes, élelmiszerbolt",48.410106,20.654917,,,
10320,"Felsőnyáregyháza, vasúti elágazás",47.275655,19.476979,,,
10321,"Felsőnyáregyháza, vasúti elágazás",47.275387,19.477609,,,
10322,"Felsőnyáregyháza, vasúti elágazás",47.275935,19.477347,,,
10323,"Felsőnyék, alsó",46.784759,18.279753,,,
10324,"Felsőnyék, alsó",46.784735,18.279329,,,
10325,"Felsőnyék, községháza",46.788946,18.291573,,,
10326,"Felsőnyék, községháza",46.789283,18.290749,,,
10327,"Felsőnyék, községháza",46.789328,18.290791,,,
10328,"Felsőnyék, Marx körút",46.794202,18.295623,,,
10329,"Felsőnyírvármajor, autóbusz-váróterem",47.118531,16.569373,,,
1033,"Alsótold, óvoda",47.951721,19.595435,,,
10330,"Felsőnyírvármajor, autóbusz-váróterem",47.118607,16.569444,,,
10331,"Felsőörs, alsó",47.013299,17.957864,,,
10332,"Felsőörs, alsó",47.013165,17.957242,,,
10333,"Felsőörs, autóbusz-váróterem",47.014566,17.953240,,,
10334,"Felsőörs, autóbusz-váróterem",47.014531,17.951939,,,
10335,"Felsőörs, Kinizsi utca",47.018571,17.948213,,,
10336,"Felsőörs, Kinizsi utca",47.018587,17.948047,,,
10337,"Felsőörs, Kishegy",47.006828,17.965262,,,
10338,"Felsőörs, Kishegy",47.006474,17.965235,,,
10339,"Felsőörs, Öreglak",47.017060,17.991098,,,
1034,"Alsótold, óvoda",47.951689,19.595361,,,
10340,"Felsőörs, Öreglak",47.017225,17.991462,,,
10341,"Felsőörs, Pityorka út",47.015076,17.971493,,,
10342,"Felsőörs, Pityorka út",47.014910,17.970224,,,
10343,"Felsőörs, szőlőhegy",47.015391,17.979380,,,
10344,"Felsőörs, szőlőhegy",47.015467,17.979761,,,
10345,"Felsőpáhok, autóbusz-váróterem",46.785100,17.163388,,,
10346,"Felsőpáhok, autóbusz-váróterem",46.785084,17.163654,,,
10347,"Felsőpáhok, szőlőhegy",46.784953,17.147860,,,
10348,"Felsőpáhok, szőlőhegy",46.784869,17.147917,,,
10349,"Felsőpáhok, templom",46.784612,17.158605,,,
1035,"Alsótold, vegyesbolt",47.952050,19.598068,,,
10350,"Felsőpáhok, templom",46.784590,17.158454,,,
10351,"Felsőpáhok, Zalaköszvényes bejárati út",46.792207,17.140852,,,
10352,"Felsőpakony, autóbusz-forduló",47.342893,19.232353,,,
10353,"Felsőpakony, óvoda",47.343236,19.238791,,,
10354,"Felsőpakony, óvoda",47.343252,19.239110,,,
10355,"Felsőpetény, bánya",47.892829,19.212918,,,
10356,"Felsőpetény, bánya",47.892848,19.211526,,,
10357,"Felsőpetény, bánya",47.893234,19.211511,,,
10358,"Felsőpetény, FUNTOS",47.891750,19.206184,,,
10359,"Felsőpetény, FUNTOS",47.891727,19.205982,,,
1036,"Alsótold, vegyesbolt",47.951931,19.598018,,,
10360,Felsőpetényi elágazás,47.878831,19.168582,,,
10361,Felsőpetényi elágazás,47.878924,19.168602,,,
10362,Felsőpetényi elágazás,47.879519,19.169243,,,
10363,Felsőpetényi elágazás,47.879398,19.168773,,,
10364,"Felsőpetény, orvosi rendelő",47.887630,19.195503,,,
10365,"Felsőpetény, orvosi rendelő",47.887830,19.195634,,,
10366,"Felsőpetény, sportpálya",47.890843,19.199191,,,
10367,"Felsőpetény, sportpálya",47.890706,19.199084,,,
10368,"Felsőrajk, iskola",46.676538,16.986481,,,
10369,"Felsőrajk, iskola",46.676281,16.986697,,,
1037,"Alsóújlak, autóbusz-váróterem",47.080036,16.855054,,,
10370,"Felsőrajk, pötrétei elágazás",46.680667,16.986139,,,
10371,"Felsőrajk, pötrétei elágazás",46.679976,16.986100,,,
10372,"Felsőrajk, pötrétei elágazás",46.681035,16.985504,,,
10373,"Felsőrajk, pötrétei elágazás",46.681103,16.985256,,,
10374,"Felsőrajk, Szabadság utca 102.",46.670932,16.990191,,,
10375,"Felsőrajk, Szabadság utca 102.",46.670507,16.990528,,,
10376,"Felsőrajk, Vicsoripuszta",46.684461,16.970378,,,
10377,"Felsőrajk, Vicsoripuszta",46.684500,16.971328,,,
10378,"Felsőregmec, iskola",48.489730,21.605631,,,
10379,Felsőrévbér,46.817213,18.955969,,,
1038,"Alsóújlak, autóbusz-váróterem",47.080064,16.855010,,,
10380,Felsőrévbér,46.817285,18.955989,,,
10382,"Felsősima, 17. sz.",47.893343,21.594007,,,
10383,"Felsősima, 17. sz.",47.893062,21.593720,,,
10384,"Felsősima, 9. sz.",47.889313,21.588360,,,
10385,"Felsősima, 9. sz.",47.888432,21.587559,,,
10387,"Felsőszenterzsébet, autóbusz-forduló",46.752725,16.455172,,,
10388,"Felsőszentiván, autóbusz-váróterem",46.194051,19.188907,,,
10389,"Felsőszentiván, autóbusz-váróterem",46.194071,19.188283,,,
1039,"Alsóújlak, külső",47.085867,16.861317,,,
10390,"Felsőszentiván, Farkas tanya",46.183612,19.256021,,,
10391,"Felsőszentiván, Farkas tanya",46.183770,19.254757,,,
10392,"Felsőszentiván, iskola",46.199202,19.186152,,,
10393,"Felsőszentiván, iskola",46.199097,19.186124,,,
10394,"Felsőszentiván, Szélmalom",46.192844,19.179001,,,
10395,"Felsőszentiván, Szélmalom",46.192848,19.178866,,,
10396,Felsőszentmártoni elágazás[6],45.886750,17.751424,,,
10397,Felsőszentmártoni elágazás[6],45.886560,17.753219,,,
10398,Felsőszentmártoni elágazás[6],45.886643,17.753046,,,
10399,Felsőszentmártoni elágazás[6],45.886695,17.751388,,,
104,"Abasár, Vizespince",47.784150,19.969213,,,
1040,"Alsóújlak, külső",47.085813,16.861269,,,
10400,"Felsőszentmárton, körforgalom",45.851568,17.704102,,,
10401,"Felsőszentmárton, körforgalom",45.851623,17.704156,,,
10402,"Felsőszentmárton, kültelek",45.855837,17.708949,,,
10403,"Felsőszentmárton, kültelek",45.855799,17.708971,,,
10404,"Felsőszölnök, alsó",46.891207,16.189648,,,
10405,"Felsőszölnök, alsó",46.891354,16.189696,,,
10406,"Felsőszölnök, autóbusz-forduló",46.870163,16.159192,,,
10407,"Felsőszölnök, Fő út",46.885559,16.184408,,,
10408,"Felsőszölnök, Fő út",46.885891,16.184780,,,
10409,"Felsőszölnök, községközpont",46.876675,16.165800,,,
1041,"Alsóvadász, Béke utca",48.244511,20.906833,,,
10410,"Felsőszölnök, községközpont",46.876687,16.165920,,,
10411,"Felsőszölnök, Pruder-ház",46.879218,16.174657,,,
10412,"Felsőszölnök, Pruder-ház",46.879193,16.174704,,,
10413,"Felsőtárkány, autóbusz-váróterem",47.972844,20.415404,,,
10414,"Felsőtárkány, autóbusz-váróterem",47.972689,20.415136,,,
10415,"Felsőtárkány, barátvölgyi rom",47.992732,20.460025,,,
10416,"Felsőtárkány, barátvölgyi rom",47.992662,20.459854,,,
10417,"Felsőtárkány, Csárda",47.983020,20.435683,,,
10418,"Felsőtárkány, Csárda",47.983085,20.435657,,,
10419,"Felsőtárkány, Fő út 324",47.977343,20.425895,,,
1042,"Alsóvadász, Béke utca",48.244474,20.905900,,,
10420,"Felsőtárkány, Fő út 324",47.977306,20.425916,,,
10421,"Felsőtárkány, Fő út 8",47.961956,20.401123,,,
10422,"Felsőtárkány, Fő út 8",47.961676,20.400742,,,
10423,"Felsőtárkány, fűtőház",47.979965,20.431974,,,
10424,"Felsőtárkány, fűtőház",47.979572,20.431524,,,
10425,"Felsőtárkány, mészégető",47.965615,20.405737,,,
10426,"Felsőtárkány, mészégető",47.965239,20.405262,,,
10427,"Felsőtárkány, Tamás kútja",48.041619,20.486972,,,
10428,"Felsőtárkány, Tamás kútja",48.041499,20.486714,,,
10429,"Felsőtelekes, Fő utca 2.",48.405502,20.642611,,,
1043,"Alsóvadász, Fő út 143.",48.233112,20.905431,,,
10430,"Felsőtelekes, Fő utca 2.",48.405553,20.642498,,,
10431,"Felsőtelekes, iskola",48.409802,20.633957,,,
10432,"Felsőtelekes, iskola",48.409794,20.633753,,,
10433,"Felsőtelekes, kánói elágazás",48.406810,20.636312,,,
10434,"Felsőtelekes, kánói elágazás",48.406765,20.636972,,,
10435,"Felsőtelekes, kánói elágazás",48.407216,20.635932,,,
10436,"Felsőtelekes, orvosi rendelő",48.405833,20.632655,,,
10437,"Felsőtelekes, orvosi rendelő",48.405586,20.632492,,,
10438,"Felsőtengelic, bejárati út",46.550993,18.736631,,,
10439,"Felsőtengelic, bejárati út",46.550864,18.737383,,,
1044,"Alsóvadász, Fő út 143.",48.232826,20.905371,,,
10440,"Felsőtengelic, bejárati út",46.551115,18.736893,,,
10441,"Felsőtengelic, forduló",46.556762,18.731201,,,
10442,"Felsőtold, faluház",47.968286,19.609133,,,
10443,"Felsőtold, faluház",47.967923,19.609441,,,
10444,"Felsőtold, faluház",47.967654,19.608726,,,
10445,"Felsőtold, Kecskédpuszta",47.983181,19.613295,,,
10446,"Felsőtold, Kecskédpuszta",47.983226,19.613249,,,
10447,"Felsővadász, Petőfi utca 1.",48.370774,20.915545,,,
10448,"Felsővadász, Petőfi utca 1.",48.370904,20.915402,,,
10449,"Felsővadász, tsz telep",48.362460,20.915154,,,
1045,"Alsóvadász, községháza",48.239880,20.904360,,,
10450,"Felsővadász, tsz telep",48.361908,20.915030,,,
10451,"Felsővány, Állami gazdaság",47.278958,19.111019,,,
10453,"Felsővány, Állami gazdaság bejárati út",47.276723,19.106308,,,
10454,"Felsővány, Állami gazdaság bejárati út",47.275415,19.106603,,,
10455,Felsőváros,47.919905,20.373725,,,
10456,Felsőváros,47.920861,20.372648,,,
10457,Felsővárosi feketeföldek,46.299290,20.132925,,,
10458,Felsővárosi feketeföldek,46.299048,20.132951,,,
10459,"Felsőzsolca, 186-os km-kő (3. sz. út)",48.130122,20.875675,,,
1046,"Alsóvadász, községháza",48.239560,20.904306,,,
10460,"Felsőzsolca, 186-os km-kő (3. sz. út)",48.129321,20.874758,,,
10461,"Felsőzsolca, bejárati út",48.114707,20.860363,,,
10462,"Felsőzsolca, bejárati út",48.114196,20.861895,,,
10463,"Felsőzsolca, gyümölcsös",48.112612,20.870908,,,
10464,"Felsőzsolca, gyümölcsös",48.111956,20.873311,,,
10465,"Felsőzsolca, Hősök tere",48.106017,20.851150,,,
10466,"Felsőzsolca, Hősök tere",48.105762,20.850577,,,
10467,"Felsőzsolca, Kassai utca 51.",48.108506,20.855007,,,
10468,"Felsőzsolca, Kassai utca 51.",48.109193,20.856075,,,
10469,"Felsőzsolca, MEZŐGÉP",48.084746,20.865697,,,
1047,Alsóványpuszta,47.251070,19.127183,,,
10470,"Felsőzsolca, MEZŐGÉP",48.085319,20.865301,,,
10471,"Felsőzsolca, Rózsa utca",48.094020,20.858593,,,
10472,"Felsőzsolca, Rózsa utca",48.094485,20.858450,,,
10473,"Felsőzsolca, Szent István utca",48.105950,20.849536,,,
10474,"Felsőzsolca, Szent István utca",48.106141,20.849603,,,
10475,"Felsőzsolca, városháza",48.100107,20.854713,,,
10476,"Felsőzsolca, városháza",48.100375,20.854702,,,
10477,"Felsőzsolca, vasútállomás bejárati út",48.079978,20.870614,,,
10478,"Felsőzsolca, vasútállomás bejárati út",48.080383,20.870285,,,
10479,Fémipari Vállalat,48.068573,19.273190,,,
1048,Alsóványpuszta,47.251286,19.127080,,,
10480,Fémipari Vállalat,48.068443,19.273172,,,
10481,"Fenékpuszta, Kendergyár bejárati út",46.711010,17.246608,,,
10482,"Fenékpuszta, Kendergyár bejárati út",46.710392,17.247121,,,
10483,"Fenékpuszta, Zala-híd",46.704973,17.253050,,,
10484,"Fenékpuszta, Zala-híd",46.703948,17.252947,,,
10485,Fenyei bejárati út,46.901272,17.738054,,,
10486,Fenyei bejárati út,46.900733,17.738132,,,
10487,"Fényes, forduló",46.651622,21.158412,,,
10488,"Fényes, forduló",46.651444,21.158259,,,
10489,Fényes fürdő,47.668108,18.308305,,,
10490,Fényesfürdői elágazás,47.654456,18.317247,,,
10491,Fényesfürdői elágazás,47.654500,18.317163,,,
10492,Fényesi utca,46.669995,21.176498,,,
10493,Fényesi utca,46.670569,21.177002,,,
10494,"Fényes, Perei tanya",46.666078,21.172556,,,
10495,"Fényes, Perei tanya",46.665841,21.172411,,,
10496,"Fényestelep, erdészház",47.656427,21.700777,,,
10497,"Fényestelep, erdészház",47.656329,21.700901,,,
10498,"Fényestelep, iskola",47.652862,21.709847,,,
10499,"Fényestelep, iskola",47.652775,21.710165,,,
105,"Abasár, Vörösmarty Mihály út 35.",47.805772,20.007383,,,
10500,"Fényes, vasút",46.660125,21.149204,,,
10501,"Fényes, vasút",46.660322,21.148619,,,
10502,"Fényes, vegyesbolt",46.659636,21.166214,,,
10503,"Fényes, vegyesbolt",46.659475,21.166160,,,
10506,"Fenyődomb, feljáró út",46.898521,17.610628,,,
10507,"Fenyődomb, feljáró út",46.898418,17.610475,,,
10508,"Fenyőfő, községháza",47.349543,17.763669,,,
10509,"Fenyőfő, Újtelep",47.351397,17.767863,,,
1051,"Alsózsolca, Arany János utca",48.065220,20.885057,,,
10510,"Fenyőfő, Újtelep",47.351623,17.768405,,,
10511,Fenyő utca 43.,47.905569,21.704333,,,
10513,Ferenc körút,47.965702,21.716591,,,
10514,Ferenc körút,47.965881,21.716929,,,
10515,"Ferencmajor, dunaalmási elágazás",47.693586,18.308418,,,
10516,"Ferencmajor, dunaalmási elágazás",47.693371,18.308378,,,
10517,"Ferencszállás, alsó",46.212591,20.363726,,,
10518,"Ferencszállás, alsó",46.212840,20.363412,,,
10519,"Ferencszállás, autóbusz-váróterem",46.217134,20.353708,,,
1052,"Alsózsolca, Arany János utca",48.065108,20.885239,,,
10520,"Ferencszállás, autóbusz-váróterem",46.217286,20.353546,,,
10521,"Fertőboz, Bozi Rozi csárda",47.635882,16.701029,,,
10522,"Fertőboz, Bozi Rozi csárda",47.635939,16.701684,,,
10523,"Fertőboz, Fő út 65.",47.636804,16.696294,,,
10524,"Fertőboz, Fő út 65.",47.636925,16.696026,,,
10525,"Fertőboz, Kisboz",47.627479,16.700347,,,
10526,"Fertőboz, Obszervatórium",47.633505,16.717838,,,
10527,"Fertőboz, Obszervatórium",47.633695,16.717413,,,
10528,"Fertőd, alsó",47.619548,16.880861,,,
10529,"Fertőd, alsó",47.619620,16.880913,,,
1053,"Alsózsolca, autóbusz-forduló",48.061069,20.887661,,,
10530,"Fertőd, autóbusz-váróterem",47.620056,16.865479,,,
10531,"Fertőd, autóbusz-váróterem",47.619908,16.865745,,,
10532,"Fertőd, Fő utca 33.",47.618797,16.857375,,,
10533,"Fertőd, Fő utca 33.",47.618826,16.856850,,,
10534,"Fertőd, gránátosház",47.622035,16.870716,,,
10535,"Fertőd, gránátosház",47.621876,16.870506,,,
10536,"Fertőd, Nádgazdaság",47.678342,16.848342,,,
10537,"Fertőd, Nádgazdaság",47.678187,16.848393,,,
10538,"Fertőd, Pamhagen, országhatár",47.683428,16.913469,,,
10539,"Fertőd, Pamhagen, országhatár",47.683517,16.913193,,,
1054,"Alsózsolca, autóbusz-forduló",48.061521,20.887290,,,
10540,"Fertőd, templom",47.618214,16.887417,,,
10541,"Fertőd, templom",47.618277,16.887484,,,
10542,"Fertőd, Tőzeggyármajor",47.676140,16.953114,,,
10543,"Fertőd, VELUX-porta",47.620258,16.854538,,,
10544,"Fertőendréd, bejárati út",47.598280,16.915498,,,
10545,"Fertőendréd, bejárati út",47.598297,16.915644,,,
10546,"Fertőendréd, bejárati út",47.597109,16.915459,,,
10547,"Fertőendréd, bejárati út",47.597281,16.915758,,,
10548,"Fertőendréd, községháza",47.605685,16.906669,,,
10549,"Fertőendréd, községháza",47.605486,16.906895,,,
1055,"Alsózsolca, Betonelőregyártó üzem bejárati út",48.053517,20.896351,,,
10550,"Fertőhomok, Akác utca",47.621037,16.770403,,,
10551,"Fertőhomok, Akác utca",47.621102,16.770857,,,
10552,"Fertőhomok, hegykői üdülőtelep",47.621564,16.779944,,,
10553,"Fertőhomok, hegykői üdülőtelep",47.621695,16.779179,,,
10554,"Fertőhomok, községháza",47.620703,16.764941,,,
10555,"Fertőhomok, községháza",47.620790,16.765033,,,
10556,"Fertőrákos, autóbusz-forduló",47.710888,16.656725,,,
10557,"Fertőrákos, iskola",47.713314,16.656089,,,
10558,"Fertőrákos, iskola",47.714023,16.655813,,,
10559,"Fertőrákos, kastély",47.717115,16.653584,,,
1056,"Alsózsolca, Betonelőregyártó üzem bejárati út",48.053873,20.896023,,,
10560,"Fertőrákos, kőfejtő",47.726875,16.644447,,,
10561,"Fertőrákos, kőfejtő",47.726932,16.644482,,,
10562,"Fertőrákos, sziklasor",47.726399,16.639971,,,
10563,"Fertőrákos, sziklasor",47.726490,16.639772,,,
10564,"Fertőrákos, tűzoltószertár",47.722197,16.649308,,,
10565,"Fertőrákos, tűzoltószertár",47.722324,16.649345,,,
10566,"Fertőszentmiklós, ABC",47.590214,16.876091,,,
10567,"Fertőszentmiklós, ABC",47.589563,16.874882,,,
10568,"Fertőszentmiklós, alsó",47.579419,16.877355,,,
10569,"Fertőszentmiklós, alsó",47.579557,16.877238,,,
1057,"Alsózsolca, Deák Ferenc utca",48.077821,20.884131,,,
10570,"Fertőszentmiklós, autóbusz-váróterem",47.585075,16.879156,,,
10571,"Fertőszentmiklós, autóbusz-váróterem",47.585429,16.879239,,,
10572,"Fertőszentmiklós, kápolna",47.592697,16.860845,,,
10573,"Fertőszentmiklós, kápolna",47.592746,16.861168,,,
10574,"Fertőszentmiklós, KROMOBIL Rt.",47.588579,16.888359,,,
10575,"Fertőszentmiklós, KROMOBIL Rt.",47.588679,16.888882,,,
10576,"Fertőszentmiklós, lakótelep",47.573642,16.881905,,,
10577,"Fertőszentmiklós, lakótelep",47.573528,16.882039,,,
10578,"Fertőszentmiklós, Szerdahelyi utca",47.592119,16.871310,,,
10579,"Fertőszentmiklós, Szerdahelyi utca",47.592031,16.871652,,,
1058,"Alsózsolca, Deák Ferenc utca",48.078015,20.883724,,,
10580,"Fertőszentmiklós, vasútállomás",47.599455,16.860069,,,
10581,"Fertőszentmiklós, vasútállomás bejárati út",47.598143,16.865248,,,
10582,"Fertőszentmiklós, vasútállomás bejárati út",47.598325,16.865119,,,
10584,"Fertőszentmiklós, VELUX-porta",47.590055,16.893025,,,
10585,"Fertőszéplak, alsó",47.617454,16.843590,,,
10586,"Fertőszéplak, alsó",47.617557,16.843801,,,
10587,"Fertőszéplak, Hunyadi utca",47.615731,16.828056,,,
10588,"Fertőszéplak, Hunyadi utca",47.615811,16.828118,,,
10589,Fertőszéplaki elágazás,47.597018,16.820530,,,
1059,"Alsózsolca, Gyár út",48.078510,20.896028,,,
10590,Fertőszéplaki elágazás,47.596951,16.819134,,,
10591,"Fertőszéplak, iskola",47.615506,16.834685,,,
10592,"Fertőszéplak, iskola",47.615610,16.834186,,,
10593,"Fertőújlak, autóbusz-forduló",47.693705,16.844023,,,
10594,Fészek utca,47.955690,21.684780,,,
10596,Fészek utca ABC,47.949963,21.684989,,,
10598,Feszty Árpád utca,47.657925,18.340056,,,
10599,"Fiad, autóbusz-váróterem",46.633222,17.841080,,,
106,"Abasár, Vörösmarty Mihály út 35.",47.805446,20.007369,,,
10600,"Fiad, Báripuszta",46.616287,17.847265,,,
10601,"Fiad, Báripuszta",46.616433,17.847175,,,
10602,"Filkeháza, községháza",48.495825,21.488317,,,
10603,"Filkeháza, községháza",48.495674,21.488320,,,
10604,Fillér utca,47.925754,21.728462,,,
10605,Fischerbócsa,46.619500,19.535973,,,
10607,Fiskális út / Budai út,47.194839,18.447892,,,
10609,"Fityeház, Kossuth út 83-85",46.379393,16.907933,,,
1061,"Alsózsolca, Jókai utca",48.072749,20.888355,,,
10610,"Fityeház, Kossuth út 83-85",46.379513,16.908373,,,
10611,"Fityeház, sportpálya",46.373759,16.905225,,,
10612,"Fityeház, sportpálya",46.374292,16.905525,,,
10613,"Fityeház, vasútállomás",46.379721,16.920108,,,
10614,"Fityeház, vasútállomás",46.379637,16.921292,,,
10615,Főiskola,46.677846,21.113297,,,
10616,Főiskola,46.563270,20.635564,,,
10617,Fokköz,46.974103,21.197895,,,
10618,Fokköz,46.973855,21.199021,,,
10619,"Foktő, bejárati út (körforgalom)",46.530897,18.925214,,,
1062,"Alsózsolca, Jókai utca",48.072748,20.888411,,,
10621,"Foktő, bejárati út (körforgalom)",46.530581,18.926052,,,
10623,"Foktő, Kossuth Lajos utca",46.526723,18.932402,,,
10624,"Foktő, községháza",46.527614,18.919685,,,
10625,"Foktő, községháza",46.527757,18.918797,,,
10626,"Foktő, községháza",46.527716,18.918900,,,
10627,"Foktő, Vizmű",46.524952,18.911449,,,
10628,"Földeák, 22-es km-kő (430. sz. út)",46.279942,20.480910,,,
10629,"Földeák, 22-es km-kő (430. sz. út)",46.279471,20.480811,,,
1063,"Alsózsolca, Kassai utca",48.078173,20.874839,,,
10630,"Földeák, benzinkút",46.303526,20.482262,,,
10631,"Földeák, benzinkút",46.303533,20.482069,,,
10632,"Földeák, elágazás",46.309265,20.486827,,,
10633,"Földeák, elágazás",46.309450,20.487033,,,
10634,"Földeák, főcsatorna",46.329426,20.474986,,,
10635,"Földeák, főcsatorna",46.329033,20.474959,,,
10636,"Földeák, közkút",46.323111,20.487153,,,
10637,"Földeák, közkút",46.323129,20.486888,,,
10638,"Földeák, községháza",46.318071,20.493658,,,
10639,"Földeák, községháza",46.318246,20.493475,,,
1064,"Alsózsolca, Kassai utca",48.078253,20.874878,,,
10640,"Földeák, Leonka",46.322677,20.479300,,,
10641,"Földeák, Leonka",46.322808,20.479522,,,
10642,"Földeák, vasútállomás bejárati út",46.311938,20.490154,,,
10643,"Földeák, vasútállomás bejárati út",46.311947,20.490065,,,
10644,"Földes, autóbusz-váróterem",47.289108,21.370423,,,
10645,"Földes, Debreceni utca",47.293826,21.376251,,,
10646,"Földes, Debreceni utca",47.293564,21.375808,,,
10647,"Földes, elágazás",47.284029,21.359809,,,
10648,"Földes, elágazás",47.283478,21.359257,,,
10649,"Földes, Halászcsárda",47.262099,21.432431,,,
1065,"Alsózsolca, Kossuth út",48.076782,20.874230,,,
10650,"Földes, Halászcsárda",47.262037,21.432369,,,
10651,"Földes, sportpálya",47.295917,21.357391,,,
10652,"Földes, sportpálya",47.295874,21.357687,,,
10653,"Földes, vásártér",47.287389,21.352644,,,
10654,"Földes, vásártér",47.287460,21.351792,,,
10655,Földműves szövetkezet 4. sz. bolt,47.062967,19.590632,,,
10656,Földműves szövetkezet 4. sz. bolt,47.062858,19.590561,,,
10657,"Földsziget, autóbusz-forduló",47.668151,17.152239,,,
10658,"Földsziget, autóbusz-váróterem",47.669999,17.156852,,,
10659,"Földsziget, orvosi rendelő",47.668613,17.159163,,,
1066,"Alsózsolca, Kossuth út",48.077107,20.873990,,,
10660,"Földsziget, orvosi rendelő",47.668576,17.159464,,,
10661,"Folyás, Bolyai János utca",47.810906,21.131214,,,
10662,"Folyás, Bolyai János utca",47.809925,21.131074,,,
10663,"Folyás, községháza",47.803812,21.133760,,,
10664,"Folyás, községháza",47.803182,21.133925,,,
10665,"Fonó, alsó",46.393723,17.956198,,,
10666,"Fonó, alsó",46.393463,17.956451,,,
10667,"Fonó, felső",46.398363,17.953427,,,
10668,"Fonó, felső",46.397810,17.953767,,,
10669,"Fony, Dózsa György utca 1.",48.392245,21.289319,,,
1067,"Alsózsolca, községháza",48.071883,20.878165,,,
10670,"Fony, Dózsa György utca 1.",48.392328,21.288980,,,
10671,"Főnyed, autóbusz-váróterem",46.631254,17.257935,,,
10672,"Főnyed, autóbusz-váróterem",46.631155,17.257880,,,
10673,Főnyedi elágazás (3),46.604660,17.267441,,,
10674,Főnyedi elágazás (3),46.604496,17.267568,,,
10675,"Főnyed, temető",46.621312,17.257973,,,
10676,"Főnyed, temető",46.621606,17.257938,,,
10679,"Fonyód, Alkotóház",46.738395,17.537418,,,
1068,"Alsózsolca, községháza",48.072116,20.878104,,,
10680,"Fonyód, Alkotóház",46.738412,17.537456,,,
10681,"Fonyód (Alsóbélatelep), vasúti megállóhely",46.723896,17.516031,,,
10682,"Fonyód (Alsóbélatelep), vasúti megállóhely",46.724327,17.517351,,,
10685,"Fonyód, Badacsony utca",46.744608,17.548098,,,
10686,"Fonyód, Badacsony utca",46.744528,17.547917,,,
10687,"Fonyód (Bélatelep), forduló",46.729342,17.528338,,,
1069,"Alsózsolca, sportpálya",48.069143,20.884152,,,
10690,"Fonyód, DÉDÁSZ",46.742897,17.558255,,,
10691,"Fonyód, Egészségház",46.745869,17.557282,,,
10692,"Fonyód, Egészségház",46.746522,17.557110,,,
10693,"Fonyód, Fácános",46.737575,17.559514,,,
10694,"Fonyód, Fácános",46.735849,17.559843,,,
10696,"Fonyód, Feketebézseny",46.719815,17.589235,,,
10697,"Fonyód, Feketebézseny",46.719947,17.589274,,,
10698,"Fonyód (Fonyódliget), alsó",46.753458,17.573983,,,
10699,"Fonyód (Fonyódliget), alsó",46.753182,17.572985,,,
107,"Abaújalpár, bejárati út",48.307929,21.227990,,,
1070,"Alsózsolca, sportpálya",48.069613,20.883555,,,
10700,"Fonyód (Fonyódliget), Árpád utca",46.755458,17.587639,,,
10701,"Fonyód (Fonyódliget), Árpád utca",46.755693,17.588630,,,
10702,"Fonyód (Fonyódliget), vasúti megállóhely bejárati út",46.757790,17.592837,,,
10703,"Fonyód (Fonyódliget), vasúti megállóhely bejárati út",46.757435,17.592433,,,
10704,"Fonyód, Fő utca",46.742320,17.544682,,,
10705,"Fonyód, Fő utca",46.742631,17.545948,,,
10706,"Fonyód, háromszög",46.732663,17.536665,,,
10707,"Fonyód, háromszög",46.732569,17.536773,,,
10708,"Fonyód, Háziipar",46.731777,17.553424,,,
10709,"Fonyód, Háziipar",46.731728,17.553380,,,
1071,"Alsózsolca, Zrínyi utca",48.075747,20.891337,,,
10710,"Fonyód, Kenyérgyár",46.731014,17.556760,,,
10711,"Fonyód, Márffy tér",46.740487,17.538907,,,
10712,"Fonyód, Márffy tér",46.740609,17.539035,,,
10713,"Fonyód, óvoda",46.741776,17.546905,,,
10714,"Fonyód, óvoda",46.741431,17.547266,,,
10715,"Fonyód, sportcsarnok",46.747756,17.552988,,,
10716,"Fonyód, sportcsarnok",46.747686,17.552874,,,
10717,"Fonyód, Turul utca",46.729611,17.546561,,,
10718,"Fonyód, Turul utca",46.729312,17.547900,,,
10719,"Fonyód, Városi Ügyészség",46.735332,17.538308,,,
1072,"Alsózsolca, Zrínyi utca",48.075463,20.891566,,,
10720,"Fonyód, Városi Ügyészség",46.735524,17.538216,,,
10722,"Fonyód, vasútállomás",46.749786,17.557924,,41319,
10722_1,"Fonyód, vasútállomás",46.749786,17.557924,,41319,1
10722_2,"Fonyód, vasútállomás",46.749786,17.557924,,41319,2
10722_3,"Fonyód, vasútállomás",46.749786,17.557924,,41319,3
10723,"Fony, vilmányi elágazás[1]",48.391441,21.283009,,,
10724,"Fony, vilmányi elágazás[1]",48.391446,21.282781,,,
10725,Forgách Antal út 55.,48.092548,19.806442,,,
10726,Forgách Antal út 55.,48.092627,19.806399,,,
10727,Forgáchtelep,48.085176,19.810674,,,
10728,Forgáchtelep,48.085248,19.810564,,,
10729,"Forráskút, Ádám-tanya",46.348740,19.894965,,,
1073,"Ambrózfalva, Dózsa György utca",46.345621,20.730903,,,
10730,"Forráskút, Ádám-tanya",46.348425,19.894504,,,
10731,"Forráskút, Átokháza dűlő",46.354950,19.929802,,,
10732,"Forráskút, Átokháza dűlő",46.355334,19.929071,,,
10733,"Forráskút, autóbusz-váróterem",46.366244,19.908782,,,
10734,"Forráskút, autóbusz-váróterem",46.366056,19.908960,,,
10735,"Forráskút, Csendes-tanya",46.373342,19.897174,,,
10736,"Forráskút, Csendes-tanya",46.373462,19.897184,,,
10737,"Forráskút, Csóti-tanya",46.379428,19.891228,,,
10738,"Forráskút, Csóti-tanya",46.379638,19.891060,,,
10739,"Forráskút, Gera-tanya",46.371416,19.917216,,,
1074,"Ambrózfalva, Dózsa György utca",46.345930,20.730803,,,
10740,"Forráskút, Gera-tanya",46.371501,19.917325,,,
10741,"Forráskút, Gyapjas-dűlő",46.376569,19.919546,,,
10742,"Forráskút, Gyapjas-dűlő",46.376551,19.919573,,,
10743,Forráskúti elágazás,46.336407,19.878731,,,
10744,Forráskúti elágazás,46.336718,19.877704,,,
10745,Forráskúti elágazás,46.336916,19.878710,,,
10746,"Forráskút, iskola",46.361133,19.909264,,,
10747,"Forráskút, iskola",46.360856,19.908802,,,
10748,"Forráskút, Kocsis-tanya II.",46.384814,19.887027,,,
10749,"Forráskút, Kocsis-tanya II.",46.385161,19.886762,,,
1075,"Ambrózfalva, községháza",46.350648,20.729991,,,
10750,"Forráskút, Kossuth utca",46.362889,19.910806,,,
10751,"Forráskút, Rácz-tanya",46.342239,19.887029,,,
10752,"Forráskút, Rácz-tanya",46.342098,19.886833,,,
10753,"Forráskút, Szegedi út",46.361921,19.917172,,,
10754,"Forráskút, Szegedi út",46.362273,19.916551,,,
10755,"Forráskút, Szent István utca",46.369279,19.903790,,,
10756,"Forráskút, Szent István utca",46.368387,19.905125,,,
10757,"Forráskút, Vidéki-tanya",46.383362,19.928918,,,
10758,"Forráskút, Vidéki-tanya",46.383539,19.929169,,,
10759,"Forráskút, Zádori-tanya",46.356078,19.903267,,,
1076,"Ambrózfalva, községháza",46.350561,20.730069,,,
10760,"Forráskút, Zádori-tanya",46.355853,19.902958,,,
10761,"Forró, cukrászda",48.318650,21.084329,,,
10762,"Forró, cukrászda",48.319120,21.084666,,,
10763,"Forró, fancsali elágazás[2]",48.328717,21.094150,,,
10764,"Forró, fancsali elágazás[2]",48.328670,21.094210,,,
10765,"Forró, fancsali elágazás[2]",48.328954,21.095375,,,
10766,"Forró, fancsali elágazás[2]",48.329369,21.096287,,,
10767,"Forró, iskola",48.324792,21.088685,,,
10768,"Forró, iskola",48.325495,21.089942,,,
10769,"Forrópuszta, Tsz. bejárati út",47.459748,19.660259,,,
1077,"Amerikai fasor, forduló",47.135034,18.411732,,,
10770,"Forrópuszta, Tsz. bejárati út",47.459402,19.660944,,,
10771,"Fót, Auchan áruház",47.581002,19.161475,,,
10772,"Fót, Auchan elágazás (Sikátorpuszta)",47.586502,19.157530,,,
10773,"Fót, Auchan elágazás (Sikátorpuszta)",47.586754,19.158284,,,
10775_2,"Fót, autóbusz-állomás",47.617051,19.195634,,41320,2
10775_3,"Fót, autóbusz-állomás",47.617051,19.195634,,41320,3
10776_1,"Fót, autóbusz-állomás",47.616897,19.195156,,41320,1
10777,"Fót, Dózsa György út",47.613511,19.195710,,,
10778,"Fót, Dózsa György út",47.613043,19.195467,,,
10779,"Fót, Fótliget",47.594043,19.174077,,,
1078,"Anarcs, Ady Endre utca 60.",48.180481,22.100914,,,
10780,"Fót, Fótliget",47.593552,19.173562,,,
10781,"Fót (Fótújfalu), Attila utca",47.619332,19.191219,,,
10782,"Fót (Fótújfalu), Attila utca",47.619196,19.191761,,,
10783,"Fót (Fótújfalu), Csaba utca",47.621403,19.188791,,,
10784,"Fót (Fótújfalu), Csaba utca",47.622104,19.188244,,,
10785,"Fót, Gyermekváros",47.605692,19.196350,,,
10786,"Fót, Gyermekváros",47.606693,19.197091,,,
10787,"Fót, Gyermekváros",47.608222,19.197323,,,
10788,"Fót, Győrffy utca 9-11.",47.611915,19.181631,,,
10789,"Fót, Győrffy utca 9-11.",47.611685,19.182253,,,
1079,"Anarcs, Ady Endre utca 60.",48.180656,22.100937,,,
10790,"Fót, Keleti Márton utca",47.614128,19.176146,,,
10791,"Fót, Keleti Márton utca",47.614047,19.176194,,,
10792,"Fót, Kézműipari Vállalat",47.603358,19.207843,,,
10793,"Fót, Kézműipari Vállalat",47.603452,19.207661,,,
10794,"Fót (Kisalag), Kazinczy Ferenc utca",47.631304,19.175799,,,
10795,"Fót (Kisalag), Kazinczy Ferenc utca",47.630925,19.176469,,,
10796,"Fót (Kisalag), Petőfi szobor",47.628683,19.179557,,,
10797,"Fót (Kisalag), Petőfi szobor",47.628264,19.180276,,,
10798,"Fót (Kisalag), sportpálya",47.626216,19.183093,,,
10799,"Fót (Kisalag), sportpálya",47.626277,19.183198,,,
108,"Abaújalpár, bejárati út",48.307388,21.227731,,,
1080,"Anarcs, Ady Endre utca 93.",48.184599,22.101827,,,
10800,"Fót, Kossuth utca",47.609596,19.193005,,,
10801,"Fót, Kossuth utca",47.609286,19.193339,,,
10802,"Fót, Kossuth utca",47.609317,19.192349,,,
10803,"Fót, Munkácsy Mihály utca",47.602444,19.193012,,,
10804,"Fót, Munkácsy Mihály utca",47.602972,19.193755,,,
10805,"Fót, Templom",47.606851,19.197994,,,
10806,"Fót, Templom",47.606851,19.198236,,,
10807,"Fót, Vízművek",47.598093,19.180940,,,
10808,"Fót, Vízművek",47.597315,19.179391,,,
10809,"Fót, VOLÁNBUSZ telep",47.589260,19.150323,,,
1081,"Anarcs, Ady Endre utca 93.",48.184790,22.101850,,,
10810,"Fót, Vörösmarty Mihály utca",47.604850,19.203877,,,
10811,"Fót, Vörösmarty Mihály utca",47.605090,19.203592,,,
10812,"Franciavágás, vasútállomás bejárati út",47.342388,17.633947,,,
10813,"Franciavágás, vasútállomás bejárati út",47.342296,17.634243,,,
10815,Franklin utca,46.676430,21.063310,,,
10816,Franklin utca,46.676398,21.062255,,,
10817,Fügödi elágazás,48.293283,21.081942,,,
10818,"Füle, Jókai Mór utca",47.056969,18.249745,,,
10819,"Füle, Jókai Mór utca",47.056998,18.249704,,,
1082,"Anarcs, almaléüzem",48.190833,22.099601,,,
10820,Füleki úti körforgalom,48.108771,19.811484,,,
10821,Füleki úti körforgalom,48.108757,19.811162,,,
10822,"Füle, községháza",47.052245,18.246166,,,
10823,"Füle, községháza",47.052212,18.246130,,,
10824,"Fülesd, autóbusz-váróterem",48.026321,22.676145,,,
10825,"Fülesd, autóbusz-váróterem",48.026306,22.676193,,,
10826,"Fülesd, Fő utca 41.",48.022905,22.674465,,,
10827,"Fülesd, Fő utca 41.",48.022892,22.674540,,,
10828,"Fülesd, Rákóczi utca",48.029873,22.680288,,,
10829,"Fülesd, Rákóczi utca",48.029708,22.680037,,,
1083,"Anarcs, almaléüzem",48.191382,22.099182,,,
10830,"Fulókércs, fáji elágazás",48.423188,21.106377,,,
10831,"Fulókércs, fáji elágazás",48.422886,21.106848,,,
10832,"Fulókércs, fáji elágazás",48.423739,21.106856,,,
10833,"Fulókércs, Fő utca 56.",48.435829,21.103052,,,
10834,"Fulókércs, Fő utca 56.",48.435363,21.103377,,,
10835,"Fulókércs, községháza",48.429417,21.106546,,,
10836,"Fulókércs, községháza",48.430064,21.106667,,,
10837,"Fülöp, Arany János utca",47.591015,22.051822,,,
10838,"Fülöp, Arany János utca",47.590825,22.051736,,,
10839,"Fülöp, autóbusz-forduló",47.602924,22.104852,,,
1084,"Anarcs, alsó",48.182161,22.104033,,,
10840,"Fülöp, autóbusz-forduló",47.602867,22.104756,,,
10841,"Fülöp, Bánháza",47.601227,22.093277,,,
10842,"Fülöp, Bánháza",47.601392,22.094101,,,
10843,"Fülöp, Bánházai utca 4.",47.600867,22.075385,,,
10844,"Fülöp, Bánházai utca 4.",47.600860,22.075217,,,
10845,"Fülöpháza, 22-es km-kő (52. sz. út)",46.865473,19.398595,,,
10846,"Fülöpháza, 22-es km-kő (52. sz. út)",46.865253,19.397109,,,
10847,"Fülöpháza, 5-ös km-kő (5215. sz. út)",46.887119,19.450214,,,
10848,"Fülöpháza, 5-ös km-kő (5215. sz. út)",46.887563,19.449642,,,
10849,"Fülöpháza, Aszódi tanya",46.911034,19.456388,,,
1085,"Anarcs, alsó",48.181930,22.104137,,,
10850,"Fülöpháza, Aszódi tanya",46.911010,19.456341,,,
10851,"Fülöpháza, bejárati út",46.874622,19.464913,,,
10852,"Fülöpháza, bejárati út",46.874696,19.463201,,,
10853,"Fülöpháza, bejárati út",46.874497,19.464255,,,
10854,"Fülöpháza, bejárati út",46.874674,19.463152,,,
10855,"Fülöpháza, Galambházi-dűlő",46.857834,19.502317,,,
10856,"Fülöpháza, Galambházi-dűlő",46.857570,19.502221,,,
10857,"Fülöpháza, Határút",46.880871,19.510832,,,
10858,"Fülöpháza, Határút",46.880738,19.510064,,,
1086,"Anarcs, Kossuth utca 20.",48.174726,22.098650,,,
10860,"Fülöpháza, iskola",46.893140,19.444542,,,
10861,"Fülöpháza, iskola",46.892666,19.444250,,,
10862,"Fülöpháza, Lakos-tanya",46.869254,19.426364,,,
10863,"Fülöpháza, Lakos-tanya",46.869034,19.424653,,,
10864,"Fülöpháza, Széles út (52. sz. út)",46.877905,19.489003,,,
10865,"Fülöpháza, Széles út (52. sz. út)",46.877757,19.488105,,,
10866,"Fülöpháza, Szórád-dűlő",46.871417,19.441443,,,
10867,"Fülöpháza, Szórád-dűlő",46.871523,19.442937,,,
10868,"Fülöpháza, temető",46.897785,19.454286,,,
10869,"Fülöpháza, temető",46.897958,19.454540,,,
1087,"Anarcs, Kossuth utca 20.",48.174827,22.098788,,,
10870,Fülöpházi elágazás [4],46.919501,19.448190,,,
10871,Fülöpházi elágazás [4],46.919558,19.447478,,,
10873,Fülöpházi elágazás [4],46.919532,19.447524,,,
10874,"Fülöpjakab, autóbusz-váróterem",46.742327,19.723394,,,
10875,"Fülöpjakab, autóbusz-váróterem",46.742346,19.723518,,,
10876,"Fülöpjakab, Csuka-dűlő",46.746939,19.731277,,,
10877,"Fülöpjakab, Csuka-dűlő",46.746902,19.731260,,,
10878,"Fülöp, Jekk ház",47.584037,22.044322,,,
10879,"Fülöp, Jekk ház",47.583940,22.044294,,,
1088,"Anarcs, Kossuth utca 63.",48.170290,22.096935,,,
10880,"Fülöp, megyehatár",47.608297,22.114289,,,
10881,"Fülöp, megyehatár",47.608361,22.114442,,,
10882,"Fülöp, Penészleki utca 6.",47.600991,22.059164,,,
10883,"Fülöp, Penészleki utca 6.",47.601031,22.058925,,,
10884,"Fülöpszállás, Csősz-tanya",46.794099,19.265557,,,
10885,"Fülöpszállás, Csősz-tanya",46.794076,19.265524,,,
10886,"Fülöpszállás, Écsi-dűlő",46.814420,19.183672,,,
10887,"Fülöpszállás, Écsi-dűlő",46.814786,19.185110,,,
10888,"Fülöpszállás, Hunyadi utca",46.827265,19.239407,,,
10889,"Fülöpszállás, Hunyadi utca",46.827348,19.239460,,,
1089,"Anarcs, Kossuth utca 63.",48.170627,22.096811,,,
10891,"Fülöpszállás, községháza",46.819704,19.238924,,,
10892,"Fülöpszállás, községháza",46.819152,19.237931,,,
10893,"Fülöpszállás, községháza",46.818924,19.237665,,,
10894,"Fülöpszállás, Pintér-dűlő",46.853847,19.337695,,,
10895,"Fülöpszállás, Pintér-dűlő",46.853551,19.336158,,,
10896,"Fülöpszállás, Telekpuszta",46.786144,19.276329,,,
10897,"Fülöpszállás, Telekpuszta",46.785641,19.276687,,,
10898,"Fülöpszállás, Vashíd",46.848504,19.310358,,,
10899,"Fülöpszállás, Vashíd",46.848184,19.308605,,,
109,"Abaújkér, aranyosi elágazás",48.294706,21.219474,,,
1090,"Anarcs, vegyesbolt",48.174445,22.106743,,,
10900,"Fülöpszállás, vasútállomás",46.819687,19.245769,,,
10901,"Fülöpszállás, vasútállomás",46.819751,19.245730,,,
10902,"Fülöp, vegyesbolt",47.598254,22.055080,,,
10903,"Fülöp, vegyesbolt",47.598323,22.055109,,,
10904,"Fülpösdaróc, Pécsi építők útja 10.",47.940495,22.472946,,,
10905,"Fülpösdaróc, Pécsi építők útja 10.",47.940537,22.472992,,,
10906,"Fülpösdaróc, Szociális Otthon",47.933564,22.478939,,,
10907,"Fülpösdaróc, vegyesbolt",47.938859,22.480351,,,
10908,"Fülpösdaróc, vegyesbolt",47.938859,22.480387,,,
10909,Fürdő,46.767479,21.140260,,,
1091,"Anarcs, vegyesbolt",48.174297,22.107011,,,
10910,Fürdő,46.767449,21.140254,,,
10914,"Fürged, autóbusz-váróterem",46.722610,18.307592,,,
10915,"Fürged, Ifjúság utca",46.728315,18.303665,,,
10916,"Fürged, Ifjúság utca",46.728520,18.303556,,,
10917,"Furta, községháza",47.128622,21.456823,,,
10918,"Furta, községháza",47.128751,21.457071,,,
10919,"Furta, Szabadság utca",47.133490,21.472177,,,
1092,"Andocs, felső",46.656369,17.909608,,,
10920,"Furta, Szabadság utca",47.132909,21.471720,,,
10922,Fuvaros utca,47.493146,19.901618,,,
10923,Fuvaros utca,47.493256,19.901725,,,
10924,Füzéri elágazás(Dobogó),48.515617,21.470784,,,
10925,Füzéri elágazás(Dobogó),48.514837,21.470747,,,
10926,Füzéri elágazás(Dobogó),48.515011,21.469302,,,
10927,"Füzérkajata, autóbusz-váróterem",48.517590,21.499754,,,
10928,Füzérkajatai elágazás,48.492992,21.492786,,,
10929,Füzérkajatai elágazás,48.493029,21.492332,,,
1093,"Andocs, felső",46.656466,17.909201,,,
10930,Füzérkajatai elágazás,48.492112,21.492948,,,
10931,"Füzérkomlós, iskola",48.509638,21.451456,,,
10932,"Füzérkomlós, iskola",48.509915,21.451958,,,
10933,"Füzérkomlós, nyiri elágazás",48.513644,21.452833,,,
10934,"Füzérkomlós, nyiri elágazás",48.513565,21.452564,,,
10935,"Füzérkomlós, nyiri elágazás",48.513585,21.452928,,,
10936,"Füzérkomlós, nyiri elágazás",48.513502,21.452377,,,
10937,"Füzér,községháza",48.539338,21.455901,,,
10938,"Füzér, Petőfi utca",48.533438,21.458785,,,
10939,"Füzér, Petőfi utca",48.533371,21.458782,,,
1094,"Andocs, Nagytoldipuszta",46.646140,17.892216,,,
10940,"Füzérradvány, kastélykerti elágazás",48.471094,21.536484,,,
10941,"Füzérradvány, kastélykerti elágazás",48.471350,21.537860,,,
10942,"Füzérradvány, Kossuth utca",48.484674,21.525520,,,
10943,"Füzesabony, DUROPACK",47.757701,20.426939,,,
10944,"Füzesabony, DUROPACK",47.757735,20.426907,,,
10945,"Füzesabony, Erősítő üzem",47.753466,20.404666,,,
10946,"Füzesabony, Erősítő üzem",47.753369,20.405859,,,
10947,"Füzesabony, Erősítő üzem",47.754272,20.404648,,,
10948,"Füzesabony, II. sz. iskola",47.744511,20.420071,,,
10949,"Füzesabony, Pikopack",47.760873,20.395150,,,
1095,"Andocs, Németsűrűpuszta",46.643647,17.914837,,,
10950,"Füzesabony, Pikopack",47.761126,20.394876,,,
10951,"Füzesabony, Pusztaszikszó",47.768973,20.383681,,,
10952,"Füzesabony, Pusztaszikszó",47.768029,20.385083,,,
10953,"Füzesabony, Szent János tér",47.742189,20.425448,,,
10954,"Füzesabony, Szent János tér",47.741351,20.425636,,,
10955,"Füzesabony, TÜZÉP",47.739250,20.410468,,,
10956,"Füzesabony, TÜZÉP",47.738590,20.410761,,,
10958_1,"Füzesabony, vasútállomás",47.750960,20.417709,,41322,1
10958_2,"Füzesabony, vasútállomás",47.750960,20.417709,,41322,2
10958_3,"Füzesabony, vasútállomás",47.750960,20.417709,,41322,3
10958_4,"Füzesabony, vasútállomás",47.750960,20.417709,,41322,4
10958_5,"Füzesabony, vasútállomás",47.750960,20.417709,,41322,5
10959,"Füzesabony, vasútállomás bejárati út",47.746692,20.410095,,,
1096,"Andocs, Németsűrűpuszta",46.643610,17.914815,,,
10960,"Füzesabony, vasútállomás bejárati út",47.745738,20.409288,,,
10961,"Füzesabony, vasútállomás bejárati út",47.745304,20.410147,,,
10962,"Füzesabony, vasúti aluljáró",47.752966,20.414939,,,
10963,"Füzesabony, vasúti aluljáró",47.752663,20.414150,,,
10964,"Füzesbokor, bejárati út",47.995250,21.653542,,,
10965,"Füzesbokor, bejárati út",47.995468,21.652929,,,
10966,"Füzesgyarmat, fürdő",47.095060,21.205777,,,
10967,"Füzesgyarmat, fürdő",47.094736,21.205645,,,
10968,"Füzesgyarmat, malom",47.115979,21.205039,,,
10969,"Füzesgyarmat, malom",47.115671,21.205490,,,
1097,"Andocs, templom",46.649332,17.926019,,,
10970,"Füzesgyarmat, Téglagyári tavak",47.087153,21.200135,,,
10971,"Füzesgyarmat, Téglagyári tavak",47.087134,21.200201,,,
10972,"Füzesgyarmat, városháza",47.107177,21.211674,,,
10973,"Füzesgyarmat, városháza",47.106912,21.211529,,,
10974_03,"Fűzfőgyártelep, autóbusz-váróterem",47.075089,18.027744,,41323,03
10974_04,"Fűzfőgyártelep, autóbusz-váróterem",47.075089,18.027744,,41323,04
10974_2,"Fűzfőgyártelep, autóbusz-váróterem",47.075089,18.027744,,41323,2
10974_3,"Fűzfőgyártelep, autóbusz-váróterem",47.075089,18.027744,,41323,3
10974_4,"Fűzfőgyártelep, autóbusz-váróterem",47.075089,18.027744,,41323,4
10976,"Fűzfőgyártelep, autóbusz-váróterem",47.074849,18.027631,,41323,
10976_01,"Fűzfőgyártelep, autóbusz-váróterem",47.074849,18.027631,,41323,01
10976_02,"Fűzfőgyártelep, autóbusz-váróterem",47.074849,18.027631,,41323,02
10976_03,"Fűzfőgyártelep, autóbusz-váróterem",47.074849,18.027631,,41323,03
10976_05,"Fűzfőgyártelep, autóbusz-váróterem",47.074849,18.027631,,41323,05
10976_1,"Fűzfőgyártelep, autóbusz-váróterem",47.074849,18.027631,,41323,1
10977,"Fűzfőgyártelep, Irinyi János Általános Iskola",47.074261,18.031724,,,
10978,"Fűzfőgyártelep, Munkás tér",47.081118,18.029196,,,
10979,"Fűzfőgyártelep, Munkás tér",47.081094,18.029244,,,
1098,"Andocs, templom",46.649408,17.925908,,,
10980,"Fűzfőgyártelep, sportlőtér",47.090284,18.027245,,,
10981,"Fűzfőgyártelep, sportlőtér",47.090101,18.027234,,,
10982,"Fűzfőgyártelep, Tripolisz",47.085778,18.032934,,,
10983,"Fűzfőgyártelep, Tripolisz",47.085256,18.033383,,,
10984,"Fűzfőgyártelep, vasúti őrház",47.090949,18.041176,,,
10985,"Fűzfőgyártelep, vasúti őrház",47.090903,18.041164,,,
10986,"Fűzvölgy, bejárati út",46.526124,16.948668,,,
10987,"Fűzvölgy, bejárati út",46.526670,16.947857,,,
10988,"Fűzvölgy, templom",46.523295,16.940626,,,
10989,"Fűzvölgy, templom",46.523511,16.940595,,,
1099,"Andocs, toldipusztai elágazás",46.648481,17.921764,,,
10990,Gábor Áron tér,47.170622,20.187339,,,
10991,Gábor Áron tér,47.170014,20.186393,,,
10992,"Gáborjánháza, Kossuth utca 27.",46.632028,16.418814,,,
10993,"Gáborjánháza, Kossuth utca 27.",46.631983,16.418814,,,
10994,"Gáborján, Malom utca 137.",47.241256,21.656772,,,
10995,"Gáborján, Malom utca 137.",47.241642,21.656391,,,
10996,"Gáborján, Malom utca 137.",47.241582,21.657452,,,
10997,"Gáborján, posta",47.234429,21.662266,,,
10998,"Gábortelep, autóbusz-váróterem",46.525929,20.925805,,,
10999,"Gábortelep, autóbusz-váróterem",46.525761,20.926398,,,
11,"57-es major, központ",46.313509,20.912948,,,
110,"Abaújkér, aranyosi elágazás",48.294733,21.219656,,,
1100,"Andornaktálya, iskola",47.858853,20.406782,,,
11000,"Gábortelep, Dózsa utca",46.528519,20.914935,,,
11001,"Gábortelep, Dózsa utca",46.528485,20.914905,,,
11002,"Gacsály, autóbusz-váróterem",47.928609,22.763730,,,
11003,"Gacsály, autóbusz-váróterem",47.928579,22.763853,,,
11004,"Gacsály, vasútállomás",47.927380,22.744085,,,
11005,"Gacsály, vasútállomás",47.927404,22.744037,,,
11006,"Gacsály, vasútállomás elágazás",47.931329,22.753344,,,
11007,"Gacsály, vasútállomás elágazás",47.931435,22.754022,,,
11008,"Gacsály, vasútállomás elágazás",47.931413,22.753201,,,
11009,"Gacsály, vasútállomás elágazás",47.931435,22.754069,,,
1101,"Andornaktálya, iskola",47.858848,20.406722,,,
11010,"Gadács, autóbusz-váróterem",46.539372,18.004754,,,
11011,"Gadány, művelődési otthon",46.515452,17.392964,,,
11013,"Gadány, Temető utca",46.515418,17.383624,,,
11014,"Gadna, községháza",48.400637,20.930271,,,
11015,"Gadna, községháza",48.400599,20.929994,,,
11016,"Gádoros, autóbusz-váróterem",46.670059,20.598539,,,
11018,"Gádoros, Bottyán vendéglő",46.660796,20.599861,,,
11019,"Gádoros, Bottyán vendéglő",46.660711,20.599907,,,
1102,"Andornaktálya, községháza",47.850119,20.410471,,,
11020,"Gádoros, darálómalom",46.666602,20.586684,,,
11021,"Gádoros, darálómalom",46.666433,20.585814,,,
11022,"Gádoros, Határ",46.664921,20.577157,,,
11023,"Gádoros, Határ",46.664763,20.575374,,,
11024,"Gádoros, Határ",46.665195,20.576137,,,
11025,"Gádoros, Hősök útja",46.671167,20.602026,,,
11026,"Gádoros, Hősök útja",46.671130,20.601926,,,
11027,"Gádoros, Kisboldogasszony templom",46.663703,20.590120,,,
11028,"Gádoros, Kisboldogasszony templom",46.664037,20.590031,,,
11029,"Gádoros, Kovács tanya",46.628884,20.599818,,,
1103,"Andornaktálya, községháza",47.850337,20.410426,,,
11030,"Gádoros, Kovács tanya",46.629722,20.599116,,,
11032,"Gádoros, községháza",46.666127,20.596107,,,
11033,"Gádoros, községháza",46.666055,20.598392,,,
11034,"Gádoros, Mágocs-ér",46.623588,20.605786,,,
11035,"Gádoros, Mágocs-ér",46.623312,20.606331,,,
11036,"Gádoros, magtároló",46.672606,20.638754,,,
11037,"Gádoros, magtároló",46.672508,20.638064,,,
11038,"Gádoros, Petri dűlő",46.649759,20.590038,,,
11039,"Gádoros, Petri dűlő",46.649931,20.590094,,,
1104,"Andornaktálya, Szent András kápolna",47.844680,20.412219,,,
11040,"Gádoros, takarékszövetkezet",46.665876,20.599400,,,
11041,"Gádoros, takarékszövetkezet",46.666000,20.599421,,,
11042,"Gádoros, vasútállomás bejárati út",46.658195,20.590108,,,
11043,"Gádoros, vasútállomás bejárati út",46.657949,20.590019,,,
11044,Gagna dűlő,47.862301,21.711229,,,
11045,Gagna dűlő,47.862413,21.710939,,,
11046,"Gagyapáti, községháza",48.409078,20.999952,,,
11047,"Gagybátor, községháza",48.435100,20.949661,,,
11048,"Gagyvendégi, autóbusz-váróterem",48.429114,20.974095,,,
11049,"Gagyvendégi, autóbusz-váróterem",48.429274,20.974141,,,
1105,"Andornaktálya, Szent András kápolna",47.844490,20.412291,,,
11050,"Gagyvendégi, Báthori utca",48.431040,20.974397,,,
11051,"Gagyvendégi, Báthori utca",48.431101,20.974260,,,
11052,Gagyvendégi elágazás,48.456221,21.001345,,,
11053,"Gagyvendégi, temető",48.424331,20.970855,,,
11054,"Gagyvendégi, temető",48.424048,20.970598,,,
11055,Galagonyás utca,47.886106,20.380749,,,
11056,Galagonyás utca,47.888247,20.380580,,,
11057,"Galambok, Ady Endre utca 92.",46.529808,17.126963,,,
11058,"Galambok, Ady Endre utca 92.",46.530260,17.127021,,,
11059,"Galambok, bejárati út",46.512813,17.122892,,,
1106,"Andornaktálya, szociális otthon",47.838265,20.415534,,,
11060,"Galambok, bejárati út",46.512564,17.122844,,,
11061,"Galambok, csapi elágazás",46.521420,17.122512,,,
11062,"Galambok, csapi elágazás",46.521337,17.122733,,,
11063,"Galambok, Felsőhegy",46.522421,17.109520,,,
11064,"Galambok, Felsőhegy",46.522287,17.109148,,,
11065,"Galambok, posta",46.522703,17.125734,,,
11066,"Galambok, posta",46.522618,17.125598,,,
11067,"Galambok, szőlőhegy",46.506603,17.103306,,,
11068,"Galambok, szőlőhegy",46.506480,17.102922,,,
11069,"Galambok, vendéglő",46.520035,17.123416,,,
1107,"Andornaktálya, szociális otthon",47.838025,20.415666,,,
11070,"Galambok, vendéglő",46.520353,17.123466,,,
11071,"Galambos, 16-os km-kő (5402. sz. út)",46.613460,19.794999,,,
11072,"Galambos, 16-os km-kő (5402. sz. út)",46.613002,19.794826,,,
11073,"Galambos, Határ út",46.603184,19.788709,,,
11074,"Galambos, Határ út",46.603165,19.788761,,,
11075,"Galambos, vasúti megállóhely",46.625469,19.800645,,,
11076,"Galambos, vasúti megállóhely",46.625452,19.800699,,,
11077,"Galgaguta, Berceli elágazás",47.851069,19.388437,,,
11078,"Galgaguta, Berceli elágazás",47.850989,19.388430,,,
1108,"Andornaktálya, tórét",47.864887,20.407028,,,
11080,"Galgaguta, Berceli elágazás",47.850831,19.388889,,,
11081,"Galgaguta, emlékpark",47.847450,19.389048,,,
11082,"Galgaguta, emlékpark",47.847516,19.389107,,,
11083,"Galgaguta, Felvég",47.854503,19.387476,,,
11084,"Galgaguta, Felvég",47.854601,19.387463,,,
11085,"Galgaguta, vasútállomás",47.845443,19.387193,,,
11086,"Galgaguta, vasútállomás",47.845462,19.387496,,,
11087,"Galgagyörk, Dózsa György utca 1.",47.741767,19.375046,,,
11089,"Galgagyörk, Dózsa György utca 1.",47.740189,19.375368,,,
1109,"Andornaktálya, tórét",47.864944,20.406978,,,
11090,"Galgagyörk, Falujáró utca 40.",47.746696,19.373174,,,
11091,"Galgagyörk, Falujáró utca 40.",47.747176,19.373002,,,
11092,"Galgahévíz, 7-es km-kő",47.622719,19.542756,,,
11093,"Galgahévíz, 7-es km-kő",47.622883,19.541709,,,
11094,"Galgahévíz, Ady Endre utca",47.619533,19.563090,,,
11095,"Galgahévíz, Ady Endre utca",47.619422,19.563820,,,
11096,"Galgahévíz, Fő út 289.",47.618551,19.570909,,,
11097,"Galgahévíz, Fő út 289.",47.618764,19.569679,,,
11098,"Galgahévíz, kegyeleti park",47.622285,19.548437,,,
11099,"Galgahévíz, kegyeleti park",47.622373,19.547619,,,
111,"Abaújkér, Kassai utca 18.",48.300273,21.195600,,,
1110,"Andrásfa, autóbusz-váróterem",46.963748,16.795990,,,
11100,"Galgahévíz, községháza",47.622530,19.553856,,,
11101,"Galgahévíz, községháza",47.622527,19.554479,,,
11102,"Galgamácsa, fatelep",47.699046,19.388201,,,
11103,"Galgamácsa, fatelep",47.698999,19.388165,,,
11104,"Galgamácsa, gyógyszertár",47.694492,19.384385,,,
11105,"Galgamácsa, gyógyszertár",47.694076,19.384112,,,
11106,"Galgamácsa, magtár",47.703258,19.391037,,,
11107,"Galgamácsa, magtár",47.703018,19.390833,,,
11108,"Galgamácsa, mezőgazdasági telep",47.690606,19.402517,,,
11109,"Galgamácsa, mezőgazdasági telep",47.690716,19.402415,,,
1111,"Andrásfa, bejárati út",46.964343,16.787080,,,
11110,"Galgamácsa, művelődési ház",47.692254,19.388077,,,
11111,"Galgamácsa, művelődési ház",47.692309,19.388027,,,
11112,"Galgamácsa, művelődési ház",47.692109,19.387260,,,
11113,"Galgamácsa, művelődési ház",47.692202,19.387245,,,
11114,"Galgamácsa, Panoráma lakótelep",47.687195,19.380468,,,
11115,"Galgamácsa, Panoráma lakótelep",47.686903,19.380057,,,
11116,"Galgamácsa, újtelep",47.700333,19.397564,,,
11117,"Galgamácsa, újtelep",47.700475,19.397334,,,
11118,"Galgamácsa, újtelep",47.700184,19.397098,,,
11119,"Galgamácsa, vasútállomás",47.693817,19.392131,,,
1112,"Andrásfa, bejárati út",46.964606,16.787277,,,
11120,"Gálosfa, alsó",46.247654,17.890987,,,
11121,"Gálosfa, alsó",46.247782,17.890495,,,
11123,"Gálosfa, felső",46.255914,17.885508,,,
11124,"Gálosfa, mezőgazdasági telep",46.251701,17.902124,,,
11125,"Gálosfa, mezőgazdasági telep",46.251751,17.902137,,,
11126,"Galvács, templom",48.419391,20.777747,,,
11127,"Galvács, templom",48.419644,20.778502,,,
11128,"Galvács, Újtelep",48.418115,20.773717,,,
11129,"Galvács, Újtelep",48.418421,20.774134,,,
1113,"Andrásfa, bejárati út",46.964348,16.787048,,,
11130,"Galya, alsó",47.909926,19.926331,,,
11131,"Galya, alsó",47.909977,19.926570,,,
11132,"Galyatető, Fenyő üdülő",47.913157,19.922664,,,
11133,"Galyatető, Fenyő üdülő",47.913136,19.922850,,,
11134,"Galyatető, Kodály Zoltán sétány",47.914299,19.920407,,,
11135,"Gamás, Jazvinapuszta",46.623329,17.794913,,,
11137,"Gamás, Jazvinapuszta",46.623359,17.794904,,,
11138,"Gamás, Jazvinapuszta",46.622763,17.795742,,,
11139,"Gamás, községháza",46.620900,17.762356,,,
11140,"Gamás, temető",46.621818,17.776465,,,
11141,"Gamás, temető",46.621776,17.776224,,,
11142,"Gamás, Vadépuszta",46.601649,17.800077,,,
11143,"Gamás, Vadépuszta",46.602416,17.799818,,,
11144,"Ganna, autóbusz-váróterem",47.232267,17.528798,,,
11145,"Ganna, döbröntei elágazás",47.238520,17.534020,,,
11146,"Ganna, döbröntei elágazás",47.238546,17.534033,,,
11148,"Ganna, döbröntei elágazás",47.238213,17.533458,,,
11149,"Ganna, sportpálya",47.234860,17.531348,,,
1115,Andrássy Gimnázium,46.672434,21.084887,,,
11150,"Ganna, sportpálya",47.234998,17.531443,,,
11151,"Gánt, bányatelep",47.365038,18.389498,,,
11152,"Gánt, bányatelep",47.364829,18.389617,,,
11153,"Gánt, kőbánya",47.358037,18.397930,,,
11154,"Gánt, kőbánya",47.357158,18.398604,,,
11155,"Gánt, Kőhányáspuszta",47.443084,18.391875,,,
11156,"Gánt, Kőhányáspuszta",47.443473,18.391382,,,
11157,"Gánt, községháza",47.392003,18.390425,,,
11158,"Gánt, községháza",47.392018,18.390399,,,
11159,"Gánt, sportpálya",47.380385,18.381168,,,
1116,Andrássy Gimnázium,46.672562,21.085254,,,
11160,"Gánt, sportpálya",47.379243,18.380405,,,
11161,"Gánt, Újsor 210.",47.385033,18.384637,,,
11162,"Gánt, Újsor 210.",47.384485,18.384286,,,
11163,"Gara, autóbusz-váróterem",46.032641,19.037475,,,
11164,"Gara, autóbusz-váróterem",46.032449,19.037636,,,
11165,"Garáb, Faluház",47.977772,19.638847,,,
11166,"Garáb, Faluház",47.977897,19.638875,,,
11167,"Garáb, forduló",47.978147,19.641963,,,
11168,"Garabonc (Kisrada), autóbusz-váróterem",46.595635,17.120354,,,
11169,"Garabonc (Kisrada), autóbusz-váróterem",46.595613,17.120356,,,
1117,Angol utca,47.140241,18.415885,,,
11170,"Garabonc (Kisrada), újmajor",46.605126,17.120162,,,
11171,"Garabonc (Kisrada), újmajor",46.604933,17.120162,,,
11172,"Garabonc, központ",46.587043,17.122588,,,
11173,"Garabonc, központ",46.587297,17.122594,,,
11174,"Garabonc, zalamerenyei elágazás",46.578822,17.122669,,,
11175,"Garabonc, zalamerenyei elágazás",46.579531,17.122837,,,
11176,"Gara, Bunyevác utca",46.039647,19.032746,,,
11177,"Gara, Bunyevác utca",46.039670,19.032852,,,
11178,"Garadna, községháza",48.418483,21.174619,,,
11179,"Garadna, községháza",48.417219,21.173998,,,
1118,Angol utca,47.140334,18.415863,,,
11180,"Gara, Gellai bekötő út",46.016172,19.049888,,,
11181,"Gara, Gellai bekötő út",46.015947,19.049927,,,
11182,"Gara, lakótelep",46.053032,19.028996,,,
11183,"Gara, lakótelep",46.053333,19.028855,,,
11184,Garancsi-tó,47.625102,18.804687,,,
11185,Garancsi-tó,47.625204,18.803959,,,
11186,"Gara, Nyérctelep",46.070839,19.020034,,,
11187,"Gara, Nyérctelep",46.070818,19.019985,,,
11188,"Gara, szociális otthon",46.025903,19.042970,,,
11189,"Gara, szociális otthon",46.025918,19.043037,,,
1119,Ankli József út,47.905466,20.357370,,,
11190,Garay út,47.901404,20.362529,,,
11191,Garbolc,47.945639,22.859789,,,
11192,Garbolc,47.945762,22.859701,,,
11193,"Gárdony, ALDI",47.201197,18.617578,,,
11194,"Gárdony, ALDI",47.201258,18.617805,,,
11195,"Gárdony, Depó Áruház",47.213546,18.642246,,,
11196,"Gárdony, Depó Áruház",47.213514,18.642283,,,
11197,Gárdonyi ház,47.906116,20.381201,,,
11198,Gárdonyi ház,47.905909,20.381079,,,
11199,"Gárdony, Iskola utca",47.194499,18.618776,,,
112,"Abaújkér, Kassai utca 18.",48.301125,21.196255,,,
1120,"Annavölgy, Fő tér",47.696299,18.667519,,,
11200,"Gárdony, Iskola utca",47.194868,18.618395,,,
11201,"Gárdony, Kék Tó étterem",47.206801,18.630921,,,
11202,"Gárdony, Kisfaludi utca",47.211513,18.638253,,,
11203,"Gárdony, Kisfaludi utca",47.210283,18.635498,,,
11204,"Gárdony, Pálmajor",47.169086,18.642035,,,
11205,"Gárdony, Pálmajor",47.169271,18.641922,,,
11206,"Gárdony, Rendőrség",47.198502,18.614950,,,
11207,"Gárdony, Rendőrség",47.198327,18.615085,,,
11208,"Gárdony, vasútállomás",47.206460,18.626503,,,
11209,"Gárdony, vasútállomás",47.205759,18.624992,,,
1121,Annavölgy óvoda,47.693904,18.662980,,,
11210,"Garé, egészségház",45.920796,18.200314,,,
11211,"Garé, egészségház",45.920765,18.200346,,,
11212,Garéi elágazás[3],45.914279,18.231476,,,
11213,Garéi elágazás[3],45.915194,18.231964,,,
11214,Garéi elágazás[3],45.914692,18.231148,,,
11215,"Garé, Rákóczi Ferenc utca 48.",45.914729,18.192599,,,
11216,"Garé, Rákóczi Ferenc utca 48.",45.914598,18.192521,,,
11217,"Garé, szavai elágazás",45.919311,18.194151,,,
11218,"Garé, szavai elágazás",45.919296,18.194027,,,
11219,Garzonház,47.911341,20.370323,,,
1122,Annavölgy óvoda,47.694042,18.662967,,,
11220,Garzonház,47.912835,20.370290,,,
11221,"Gasztony, autóbusz-váróterem",46.965881,16.453913,,,
11222,"Gasztony, autóbusz-váróterem",46.965875,16.453747,,,
11223,"Gasztony, kastély",46.964673,16.446199,,,
11224,"Gasztony, kastély",46.964946,16.445407,,,
11225,"Gátér, Baromfi telep",46.691122,19.938900,,,
11226,"Gátér, Baromfi telep",46.691723,19.937855,,,
11227,"Gátér, községháza",46.683521,19.957151,,,
11228,"Gátér, községháza",46.683548,19.957191,,,
11229,"Gátér, Tangazdaság",46.694733,20.015506,,,
1123,Antalbokor autóbusz-forduló,47.970915,21.648458,,,
11230,"Gátér, Tangazdaság",46.694245,20.013755,,,
11231,"Gávavencsellő, Dózsa György utca 56.",48.165574,21.566084,,,
11232,"Gávavencsellő, Dózsa György utca 56.",48.165586,21.566321,,,
11233,"Gávavencsellő, Hősök tere",48.162675,21.590704,,,
11234,"Gávavencsellő, Hősök tere",48.162747,21.590598,,,
11235,"Gávavencsellő, községháza",48.165129,21.575806,,,
11236,"Gávavencsellő, községháza",48.165166,21.575670,,,
11237,"Gávavencsellő, Petőfi utca 147.",48.160180,21.597532,,,
11238,"Gávavencsellő, Petőfi utca 147.",48.160202,21.597593,,,
11239,"Gávavencsellő, Petőfi utca 167.",48.158108,21.601353,,,
1124,Antalmajor,48.536816,20.853306,,,
11240,"Gávavencsellő, Petőfi utca 167.",48.158068,21.601504,,,
11241,"Gávavencsellő, sertéstelep",48.147936,21.621998,,,
11242,"Gávavencsellő, sertéstelep",48.147665,21.622652,,,
11243,"Gávavencsellő, temető",48.158350,21.590415,,,
11244,"Gávavencsellő, Toldi Miklós utca",48.168643,21.560870,,,
11245,"Gávavencsellő, Toldi Miklós utca",48.168505,21.560883,,,
11246,Gázcseretelep,47.122251,20.206137,,,
11247,Gázcseretelep,47.121692,20.206141,,,
11248,Gázcseretelep,47.121989,20.207672,,,
11249,Gázfogadó,46.820751,21.000742,,,
1125,Antalmajor,48.536916,20.853314,,,
11250,Gázfogadó,46.820649,21.001103,,,
11253,Gáz utca / Budai út,47.189930,18.421656,,,
11254,Gáz utca / Budai út,47.191825,18.420075,,,
11255,Géberjéni útelágazás,47.815175,22.361947,,,
11256,Géberjéni útelágazás,47.815176,22.362007,,,
11257,"Géberjén, posta",47.935578,22.464842,,,
11258,"Géberjén, posta",47.935614,22.464868,,,
11259,"Géberjén, tsz major",47.931601,22.457144,,,
1126,"Apácatorna, autóbusz-váróterem",47.113179,17.295161,,,
11260,"Géberjén, tsz major",47.931535,22.457092,,,
11261,"Gecse, iskola",47.443690,17.524973,,,
11262,"Gecse, iskola",47.443744,17.524906,,,
11263,"Gecse, szőlőhegy",47.449334,17.538032,,,
11264,"Gecse, szőlőhegy",47.449184,17.537943,,,
11265,"Gecse, tüzoltószertár",47.443435,17.529482,,,
11266,"Gecse, tüzoltószertár",47.443550,17.529528,,,
11267,"Géderlak, posta",46.607222,18.914166,,,
11268,"Géderlak, posta",46.607058,18.914254,,,
11269,"Géderlak, újtelep",46.612870,18.917603,,,
1127,"Apácatorna, autóbusz-váróterem",47.112883,17.295268,,,
11270,"Géderlak, újtelep",46.612916,18.917626,,,
11271,"Gégény, Fekete tanya",48.169072,21.925919,,,
11272,"Gégény, Fekete tanya",48.169034,21.925896,,,
11273,"Gégény, iskola",48.140954,21.949231,,,
11274,"Gégény, iskola",48.141021,21.949219,,,
11275,"Gégény, kultúrház",48.145799,21.948966,,,
11276,"Gégény, kultúrház",48.145769,21.948925,,,
11277,"Gégény, Mackó tanya",48.162742,21.934734,,,
11278,"Gégény, Mackó tanya",48.162804,21.934688,,,
11279,"Gégény, Tölgyes tanya",48.178314,21.926197,,,
1128,"Apácatorna, bejárati út",47.117714,17.288963,,,
11280,"Gégény, Tölgyes tanya",48.178222,21.926205,,,
11281,"Gégény, vasútállomás",48.128363,21.951771,,,
11282,"Gégény, vasútállomás bejárati út",48.134040,21.948495,,,
11283,"Gégény, vasútállomás bejárati út",48.133984,21.948512,,,
11284,"Gégény, Zrínyi Ilona utca 1.",48.149671,21.947237,,,
11285,"Gégény, Zrínyi Ilona utca 1.",48.149636,21.947268,,,
11286,"Gelej, községháza",47.829658,20.773940,,,
11287,"Gelej, községháza",47.829697,20.773895,,,
11288,"Gelej, Petőfi út 56.",47.830975,20.784171,,,
11289,"Gelej, Petőfi út 56.",47.831034,20.784390,,,
1129,"Apácatorna, bejárati út",47.117419,17.289548,,,
11290,"Gelej, temető",47.827229,20.768917,,,
11291,"Gelej, temető",47.827062,20.768591,,,
11292,"Gelénes, Kossuth utca 81.",48.197629,22.446865,,,
11293,"Gelénes, Kossuth utca 81.",48.198007,22.446640,,,
11294,"Gelénes, községháza",48.202599,22.445075,,,
11295,"Gelénes, községháza",48.202961,22.445120,,,
11296,"Gelénes, Petőfi utca 34.",48.199528,22.451504,,,
11297,"Gelénes, Petőfi utca 34.",48.199685,22.451456,,,
11298,"Gellénháza, autóbusz-váróterem",46.767443,16.785766,,,
11299,"Gellénháza, autóbusz-váróterem",46.767259,16.785789,,,
113,"Abaújkér, Petőfi utca (forduló)",48.305621,21.200364,,,
1130,"Apácatorna, bejárati út",47.118239,17.289185,,,
11300,"Gellénháza, Borút",46.754977,16.781415,,,
11301,"Gellénháza, Borút",46.754663,16.781461,,,
11302,"Gellénháza, MOL telep",46.767354,16.779917,,,
11303,"Gellénháza, MOL telep",46.767471,16.780005,,,
11304,"Gellénháza, sportpálya",46.773420,16.784082,,,
11305,"Gellénháza, sportpálya",46.773424,16.784022,,,
11306,"Gellénháza, templom",46.759302,16.783148,,,
11307,"Gellénháza, templom",46.759401,16.783281,,,
11308,"Gelse, Arany János utca",46.608294,16.993003,,,
11309,"Gelse, Arany János utca",46.608347,16.993177,,,
1131,"Apácatorna, bejárati út",47.117751,17.289826,,,
11310,"Gelse, Buslakpuszta",46.577499,16.988746,,,
11311,"Gelse, Buslakpuszta",46.576819,16.988602,,,
11312,"Gelse, Dózsa utca 37.",46.603150,16.983666,,,
11313,"Gelse, Dózsa utca 37.",46.603136,16.983705,,,
11314,"Gelsesziget, kultúrház",46.566623,16.988836,,,
11315,"Gelsesziget, kultúrház",46.566486,16.988780,,,
11316,"Gelsesziget, temető",46.563007,16.988453,,,
11317,"Gelsesziget, temető",46.562215,16.988677,,,
11318,"Gelse, templom",46.602853,16.989466,,,
11319,"Gelse, templom",46.602575,16.988550,,,
1132,"Apagy, ABC áruház",47.961626,21.935149,,,
11320,"Gelse, templom",46.602136,16.989290,,,
11321,"Gelse, vegyesbolt",46.595538,16.990129,,,
11322,"Gelse, vegyesbolt",46.595578,16.990083,,,
11323,"Gemzse, autóbusz-váróterem",48.139977,22.186542,,,
11324,"Gemzse, autóbusz-váróterem",48.140055,22.186472,,,
11325,"Gemzse, újsor",48.132860,22.203476,,,
11326,"Gemzse, újsor",48.132818,22.203574,,,
11327,"Gemzse, vegyesbolt",48.139600,22.193251,,,
11328,"Gemzse, vegyesbolt",48.139584,22.193103,,,
11329,"Gencsapáti, alsó",47.270265,16.601582,,,
1133,"Apagy, ABC áruház",47.962014,21.935092,,,
11330,"Gencsapáti, alsó",47.270186,16.601566,,,
11331,"Gencsapáti, autóbusz-váróterem",47.284159,16.595820,,,
11332,"Gencsapáti, autóbusz-váróterem",47.283983,16.595831,,,
11333,"Gencsapáti, felső",47.297117,16.592279,,,
11334,"Gencsapáti, felső",47.296956,16.592315,,,
11335,"Gencsapáti, Gyöngyös utca",47.278098,16.598416,,,
11336,"Gencsapáti, Gyöngyös utca",47.277788,16.598409,,,
11337,"Gencsapáti, perenyei elágazás",47.288548,16.594446,,,
11338,"Gencsapáti, perenyei elágazás",47.288741,16.594079,,,
11339,"Gencsapáti, perenyei elágazás",47.288461,16.594421,,,
1134,"Apagy, Állami Gazdaság központ",47.958609,21.955445,,,
11340,"Gencsapáti, perenyei elágazás",47.288802,16.594098,,,
11341,"Gépállomás, bejárati út",46.533156,19.002232,,,
11342,"Gépállomás, bejárati út",46.533414,19.001890,,,
11343,Gépészeti Szakközépiskola,46.675292,21.082340,,,
11344,Gépészeti Szakközépiskola,46.675165,21.082584,,,
11347,Gépműhely,47.184844,20.134932,,,
11348,Gépműhely,47.184691,20.134856,,,
11349,Géppark,46.820179,21.402300,,,
1135,"Apagy, Állami Gazdaság központ",47.958561,21.955462,,,
11350,Géppark,46.820169,21.402352,,,
11351,"Gérce, autóbusz-váróterem",47.209792,17.020838,,,
11352,"Gérce, autóbusz-váróterem",47.209831,17.020777,,,
11353,"Gérce, felső",47.219396,17.006640,,,
11354,"Gérce, felső",47.219407,17.007079,,,
11355,"Gérce, hegykapu",47.194112,17.025602,,,
11356,"Gérce, hegykapu",47.194135,17.025553,,,
11357,"Gérce, könyvtár",47.217320,17.015804,,,
11358,"Gérce, könyvtár",47.217152,17.015864,,,
11359,"Gérce, vásárosmiskei elágazás",47.205558,17.023562,,,
1136,"Apagy, Bajcsy-Zsilinszky utca",47.957992,21.946024,,,
11360,"Gérce, vásárosmiskei elágazás",47.205543,17.023506,,,
11361,"Gerde, forduló",45.989816,18.024101,,,
11362,"Gerde, Varjasi utca",45.991647,18.033398,,,
11363,"Gerde, Varjasi utca",45.991853,18.033793,,,
11364,Gerencepuszta,47.276175,17.715901,,,
11365,Gerencepuszta,47.275996,17.716099,,,
11366,"Gerendás, Ady Endre utca",46.596094,20.856485,,,
11367,"Gerendás, Ady Endre utca",46.595873,20.856480,,,
11368,"Gerendás, autóbusz-váróterem",46.596782,20.863065,,,
11369,"Gerendás, autóbusz-váróterem",46.596574,20.864442,,,
1137,"Apagy, Bajcsy-Zsilinszky utca",47.958030,21.948184,,,
11370,"Gerendás, Újtelep",46.600063,20.856004,,,
11371,"Gerendás, Újtelep",46.599745,20.855994,,,
11372,"Gerényes, községháza",46.306140,18.188561,,,
11373,"Gerényes, községháza",46.306173,18.188595,,,
11374,"Gerényes, Petőfi utca",46.304776,18.182793,,,
11375,"Gerényes, Petőfi utca",46.304750,18.182651,,,
11376,"Geresdlak (Geresd), Dózsa György utca",46.106881,18.534706,,,
11377,"Geresdlak (Geresd), Dózsa György utca",46.106868,18.533939,,,
11378,"Geresdlak (Püspöklak), Flórián utca",46.108325,18.525033,,,
11379,"Geresdlak (Püspöklak), Flórián utca",46.108309,18.526100,,,
1138,"Apagy, Főiskolai Tangazdaság",47.955767,21.912647,,,
11380,"Geresdlak (Püspöklak), Hunyadi János utca",46.107652,18.519534,,,
11381,"Geresdlak (Püspöklak), Hunyadi János utca",46.107779,18.519180,,,
11382,Gergelykút,48.195567,20.555953,,,
11383,Gergelykút,48.195152,20.555439,,,
11384,"Gerjen, autóbusz-váróterem",46.493016,18.902418,,,
11385,Gerjeni elágazás,46.486397,18.837554,,,
11387,Gerjeni elágazás,46.486346,18.837538,,,
11389,"Gerjen, Lajosmajor",46.485317,18.863588,,,
1139,"Apagy, Főiskolai Tangazdaság",47.955696,21.912826,,,
11390,"Gerjen, Lajosmajor",46.485290,18.863922,,,
11391,"Gerjen, temető",46.488739,18.898999,,,
11392,"Gerjen, temető",46.488727,18.898741,,,
11393,Gerlai elágazás,46.709232,21.176170,,,
11394,Gerlai elágazás,46.708552,21.175777,,,
11395,Gerlai elágazás,46.708484,21.174353,,,
11396,"Gerla, Juhász Gyula utca",46.703602,21.181458,,,
11397,"Gerla, Juhász Gyula utca",46.704236,21.180802,,,
11398,"Gerla, községháza",46.700576,21.185183,,,
11399,"Gersekarát, alsó",46.968890,16.744069,,,
114,"Abaújkér, vasúti megállóhely",48.308577,21.197565,,,
1140,"Apagy, Kossuth utca 38.",47.969337,21.933898,,,
11400,"Gersekarát, alsó",46.969000,16.743986,,,
11401,"Gersekarát, autóbusz-váróterem",46.974036,16.739204,,,
11402,"Gersekarát, autóbusz-váróterem",46.974020,16.739150,,,
11403,"Gersekarát, Béke utca 94.",46.973487,16.745699,,,
11404,"Gersekarát, Béke utca 94.",46.973503,16.745754,,,
11405,"Gersekarát, bükhegyi bejárati út",46.963397,16.743200,,,
11406,"Gersekarát, bükhegyi bejárati út",46.963391,16.743142,,,
11407,"Gersekarát, halastói elágazás",46.979678,16.736428,,,
11408,"Gersekarát, halastói elágazás",46.979647,16.736436,,,
11409,"Gersekarát, községközpont",46.980969,16.741536,,,
1141,"Apagy, Kossuth utca 38.",47.969475,21.933743,,,
11410,"Gersekarát, községközpont",46.981091,16.741344,,,
11411,"Gersekarát, Vasvári utca",46.989535,16.747489,,,
11412,"Gersekarát, Vasvári utca",46.989572,16.747462,,,
11413,"Geszt, Ady Endre utca",46.879809,21.570552,,,
11414,"Geszt, Ady Endre utca",46.879807,21.570462,,,
11415,"Gesztely, Attila utca",48.095651,20.966408,,,
11416,"Gesztely, Attila utca",48.095585,20.966311,,,
11417,"Gesztely, autóbusz forduló",48.107824,20.963442,,,
11418,"Gesztely, Petőfi utca 12.",48.102856,20.963984,,,
11419,"Gesztely, Petőfi utca 12.",48.103128,20.963261,,,
1142,"Apagy, vasútállomás bejárati út",47.958305,21.936110,,,
11420,"Gesztely, Rákóczi utca 16.",48.108867,20.964279,,,
11421,"Gesztely, Rákóczi utca 16.",48.108395,20.963717,,,
11422,"Gesztely(Újharangod), iskola",48.112124,21.060021,,,
11423,Gesztenye fasor,47.662715,18.320237,,,
11424,Gesztenye fasor,47.662652,18.319440,,,
11425,"Geszteréd, autóbusz-váróterem",47.765457,21.775653,,,
11426,"Geszteréd, autóbusz-váróterem",47.765512,21.776063,,,
11427,"Geszteréd, Kossuth utca 153.",47.765208,21.788127,,,
11428,"Geszteréd, Kossuth utca 153.",47.765356,21.788390,,,
11429,"Geszteréd, Kossuth utca 44.",47.764705,21.768392,,,
1143,"Apagy, vasútállomás bejárati út",47.957329,21.934592,,,
11430,"Geszteréd, Kossuth utca 44.",47.764715,21.768459,,,
11431,"Geszteréd, Kossuth utca 9.",47.761700,21.763843,,,
11432,"Geszteréd, Kossuth utca 9.",47.762028,21.764145,,,
11433,"Geszteréd, nyíri tanya bejárati út",47.766390,21.794464,,,
11434,"Geszteréd, nyíri tanya bejárati út",47.766447,21.794827,,,
11435,"Geszt, Iklódpuszta bejárati út",46.877815,21.555802,,,
11436,"Geszt, Iklódpuszta bejárati út",46.877775,21.555821,,,
11437,"Geszt, községháza",46.882049,21.580691,,,
11438,"Geszt, községháza",46.882206,21.581383,,,
11439,"Geszt, Petőfi utca",46.884291,21.590257,,,
1144,"Apagy, vasútállomás bejárati út",47.957432,21.938024,,,
11440,"Geszt, Petőfi utca",46.884274,21.590221,,,
11441,"Gétye, Csányi utca",46.761746,17.068400,,,
11442,Gétyei elágazás,46.729436,17.073745,,,
11443,Gétyei elágazás,46.729430,17.073853,,,
11444,"Gézaházapuszta, bejárati út",47.325921,17.877026,,,
11445,"Gézaházapuszta, bejárati út",47.325418,17.876610,,,
11446,"Gibárt, Dózsa György utca 10.",48.314381,21.162878,,,
11447,"Gibárt, Dózsa György utca 10.",48.314422,21.162514,,,
11448,"Gibárt, Kossuth utca 17.",48.318543,21.155439,,,
11449,"Gibárt, Kossuth utca 17.",48.318117,21.155945,,,
1145,"Apaj, Állami Gazdaság központ",47.114767,19.095006,,,
11450,"Gic-Hathalom, vasútállomás bejárati út",47.429039,17.746863,,,
11451,"Gic, vajgyár",47.432897,17.754994,,,
11452,"Gic, vajgyár",47.432882,17.755139,,,
11453,"Gige, művelődési ház",46.303097,17.608344,,,
11454,"Gige, művelődési ház",46.300116,17.608093,,,
11455,"Gige, művelődési ház",46.300823,17.608173,,,
11456,"Gige, művelődési ház",46.302529,17.608386,,,
11457,"Gilvánfa, óvoda",45.919390,17.960996,,,
11458,"Gilvánfa, óvoda",45.919323,17.960999,,,
11459,"Gilvánfa, Vargatelep",45.914120,17.958387,,,
1146,"Apaj, Belsőszúnyog",47.156610,19.068387,,,
11460,"Gilvánfa, Vargatelep",45.913906,17.958360,,,
11461,Gimnázium,47.784302,19.932507,,,
11462,Gimnázium,47.784217,19.932530,,,
11463,"Girincs, bolt",47.969799,20.987324,,,
11464,"Girincs, bolt",47.969862,20.986774,,,
11465,"Girincs, Kossuth Lajos utca 2.",47.969447,20.992210,,,
11466,"Girincs, Kossuth Lajos utca 2.",47.969513,20.991748,,,
11467,"Girincs, Rózsa utca",47.970466,20.981339,,,
11468,"Girincs, Rózsa utca",47.970597,20.980843,,,
11469,"Göd, Autópihenő",47.708133,19.136457,,,
1147,"Apaj, Belsőszúnyog",47.156310,19.068613,,,
11470,"Göd, Autópihenő",47.707238,19.136166,,,
11472,"Göd, Gárdonyi Géza utca",47.698329,19.135381,,,
11473,"Göd, Gárdonyi Géza utca",47.698453,19.135300,,,
11474,"Göd, Gólya Falatozó",47.675961,19.133145,,,
11475,"Göd, Gólya Falatozó",47.674897,19.132880,,,
11478,"Godisa, vasútállomás",46.223352,18.105267,,,
11479,"Godisa, vasútállomás bejárati út",46.221557,18.103418,,,
1148,Apaji útőrház,47.130424,19.080909,,,
11480,"Godisa, vasútállomás bejárati út",46.221531,18.103364,,,
11481,"Göd, Kék-Duna utca",47.712925,19.136706,,,
11482,"Göd, Kék-Duna utca",47.713422,19.136579,,,
11483,"Göd, Kincsem Csárda",47.690368,19.134587,,,
11484,"Göd, Kincsem Csárda",47.689979,19.134399,,,
11487,"Gödöllő, Arany János utca, autóbusz-forduló",47.603233,19.363239,,,
11489,"Gödöllő, autóbusz-állomás",47.598881,19.352210,,41325,
11489_0,"Gödöllő, autóbusz-állomás",47.598881,19.352210,,41325,0
11489_1,"Gödöllő, autóbusz-állomás",47.598881,19.352210,,41325,1
11489_12,"Gödöllő, autóbusz-állomás",47.598881,19.352210,,41325,12
11489_2,"Gödöllő, autóbusz-állomás",47.598881,19.352210,,41325,2
11489_3,"Gödöllő, autóbusz-állomás",47.598881,19.352210,,41325,3
11489_4,"Gödöllő, autóbusz-állomás",47.598881,19.352210,,41325,4
11489_5,"Gödöllő, autóbusz-állomás",47.598881,19.352210,,41325,5
11489_6,"Gödöllő, autóbusz-állomás",47.598881,19.352210,,41325,6
11489_7,"Gödöllő, autóbusz-állomás",47.598881,19.352210,,41325,7
11489_8,"Gödöllő, autóbusz-állomás",47.598881,19.352210,,41325,8
11489_9,"Gödöllő, autóbusz-állomás",47.598881,19.352210,,41325,9
1149,Apaji útőrház,47.130876,19.080843,,,
11490,"Gödöllő, Bajcsy-Zsilinszky Endre utca 33.",47.604198,19.346736,,,
11491,"Gödöllő, baromfitelep",47.567080,19.372924,,,
11492,"Gödöllő, baromfitelep",47.566953,19.373121,,,
11493,"Gödöllő, Bem József utca",47.610420,19.359566,,,
11494,"Gödöllő, Bem József utca",47.610010,19.360040,,,
11495,"Gödöllő, Bessenyei György utca",47.585039,19.376545,,,
11496,"Gödöllő, Bessenyei György utca",47.584976,19.376352,,,
11497,"Gödöllő, Bethlen Gábor utca",47.605435,19.351708,,,
11498,"Gödöllő, Bethlen Gábor utca",47.605907,19.351069,,,
11499,"Gödöllő, Blaha Lujza fürdő",47.622925,19.340566,,,
115,"Abaújkér, vasúti megállóhely",48.308649,21.197592,,,
1150,"Apaj, kunszentmiklósi útelágazás",47.112882,19.088026,,,
11500,"Gödöllő, Blaha Lujza fürdő",47.622901,19.340486,,,
11501,"Gödöllő, Damjanich János Általános Iskola",47.603422,19.377292,,,
11502,"Gödöllő, Damjanich János Általános Iskola",47.603323,19.377446,,,
11503,"Gödöllő, Damjanich János utca",47.601999,19.375617,,,
11504,"Gödöllő, Damjanich János utca",47.601747,19.376861,,,
11505,"Gödöllő, Dobó Katica utca",47.609778,19.366033,,,
11506,"Gödöllő, Dobó Katica utca",47.609728,19.365838,,,
11507,"Gödöllő, Egyetem",47.601085,19.360088,,,
11508,"Gödöllő, Egyetem",47.600918,19.358905,,,
11509,"Gödöllő, Erzsébet park (Tessedik Sámuel utca)",47.593829,19.339352,,,
1151,"Apaj, kunszentmiklósi útelágazás",47.113138,19.087820,,,
11510,"Gödöllő, Erzsébet park (Tessedik Sámuel utca)",47.594047,19.339227,,,
11511,"Gödöllő, Faiskola utca",47.591941,19.352734,,,
11512,"Gödöllő, Fenyvesi bolt",47.594561,19.388473,,,
11513,"Gödöllő, Fenyvesi bolt",47.594728,19.388144,,,
11516,"Gödöllő, Fürdő utca",47.589806,19.356112,,,
11517,"Gödöllő, Fürdő utca",47.588948,19.356700,,,
11518,"Gödöllő, Grassalkovich Antal utca",47.606379,19.354743,,,
11519,"Gödöllő, Grassalkovich Antal utca 25.",47.605971,19.355541,,,
1152,"Apaj, kunszentmiklósi útelágazás",47.113437,19.088132,,,
11520,"Gödöllő, Grassalkovich Antal utca 25.",47.606025,19.355697,,,
11521,"Gödöllő, Haraszti út",47.611671,19.335180,,,
11522,"Gödöllő, Haraszti út",47.612579,19.334354,,,
11523,"Gödöllő, Haraszti utca 5.",47.611208,19.330539,,,
11524,"Gödöllő, Hegedűs Gyula utca",47.607392,19.361915,,,
11525,"Gödöllő, Hegedűs Gyula utca",47.606892,19.361722,,,
11526,"Gödöllő, Hegedűs Gyula utca",47.606485,19.362188,,,
11527,"Gödöllő, Hegedűs Gyula utca",47.607217,19.362587,,,
11528,"Gödöllő, Hegy utca, autóbusz-forduló",47.624872,19.343148,,,
11529,"Gödöllő, Idősek Otthona",47.609199,19.336712,,,
1153,"Aparhant, alsó",46.327218,18.452105,,,
11530,"Gödöllő, Idősek Otthona",47.609330,19.336811,,,
11533,Gödöllői Gépgyár,47.559150,19.379010,,,
11534,Gödöllői Gépgyár,47.559009,19.379203,,,
11535,"Gödöllő, Incső lakópark",47.600707,19.403553,,,
11536,"Gödöllő, Incső lakópark",47.599862,19.402656,,,
11537,"Gödöllő, Isaszegi út 90.",47.583129,19.360692,,,
11538,"Gödöllő, Isaszegi út 90.",47.582692,19.361171,,,
11539,"Gödöllő, Iskola utca",47.606791,19.372219,,,
1154,"Aparhant, alsó",46.327351,18.451580,,,
11540,"Gödöllő, Iskola utca",47.607818,19.371953,,,
11541,"Gödöllő, Járási Hivatal",47.604209,19.334088,,,
11542,"Gödöllő, Katona József utca",47.593887,19.390182,,,
11543,"Gödöllő, Katona József utca",47.593784,19.390345,,,
11544,"Gödöllő, Kenyérgyári utca",47.606529,19.332082,,,
11545,"Gödöllő, Királytelep, autóbusz-forduló",47.605712,19.370328,,,
11546,"Gödöllő, Klapka utca, autóbusz-forduló",47.590049,19.393429,,,
11547,"Gödöllő, Klapka utcai elágazás",47.599849,19.384369,,,
11548,"Gödöllő, Klapka utcai elágazás",47.599295,19.383755,,,
11549,"Gödöllő, Kossuth Lajos utcai bölcsőde",47.601192,19.347155,,,
1155,"Aparhant, autóbusz-váróterem",46.336822,18.452296,,,
11550,"Gödöllő, Köztársaság út",47.586887,19.369028,,,
11551,"Gödöllő, Köztársaság út",47.587232,19.367642,,,
11552,"Gödöllő, Liget utca",47.602840,19.327289,,,
11553,"Gödöllő (Máriabesnyő), posta",47.599897,19.385299,,,
11554,"Gödöllő (Máriabesnyő), posta",47.599923,19.385597,,,
11555,"Gödöllő (Máriabesnyő), templom",47.597444,19.395775,,,
11556,"Gödöllő (Máriabesnyő), vasúti megállóhely bejárati út",47.598334,19.392162,,,
11557,"Gödöllő (Máriabesnyő), vasúti megállóhely bejárati út",47.598771,19.390766,,,
11558,"Gödöllő, Marika telep",47.582867,19.387135,,,
11559,"Gödöllő, Marika telep",47.583106,19.386350,,,
1156,"Aparhant, autóbusz-váróterem",46.336916,18.452186,,,
11560,"Gödöllő, Mátyás király utca",47.609582,19.353714,,,
11561,"Gödöllő, Mátyás király utca 12.",47.609698,19.352990,,,
11562,"Gödöllő, Mátyás király utca 25.",47.609586,19.352659,,,
11563,"Gödöllő, MÁV őrház",47.618591,19.409615,,,
11564,"Gödöllő, MÁV őrház",47.618235,19.409022,,,
11565,"Gödöllő, méhészet",47.570210,19.370522,,,
11566,"Gödöllő, méhészet",47.570839,19.370202,,,
11567,"Gödöllő, Méhész köz",47.591330,19.343046,,,
11568,"Gödöllő, Méhész köz",47.590867,19.343746,,,
11569,"Gödöllő, Oltóanyag-ellenőrző Intézet",47.576210,19.365959,,,
1157,"Aparhant, Petőfi utca 112.",46.325211,18.459200,,,
11570,"Gödöllő, Oltóanyag-ellenőrző Intézet",47.576028,19.366228,,,
11571,"Gödöllő, Palotakert",47.598766,19.355714,,,
11572,"Gödöllő, Palotakert",47.598670,19.356114,,,
11573,"Gödöllő, Présház",47.611408,19.356488,,,
11574,"Gödöllő, Présház",47.611252,19.356307,,,
11575,"Gödöllő, Radnóti Miklós utca",47.613209,19.351305,,,
11576,"Gödöllő, Radnóti Miklós utca",47.613504,19.350732,,,
11577,"Gödöllő, Rét utca",47.620165,19.343538,,,
11578,"Gödöllő, Rét utca",47.619523,19.344089,,,
11579,"Gödöllő, Rigó utca",47.616526,19.347449,,,
1158,"Aparhant, Petőfi utca 112.",46.325130,18.459366,,,
11580,"Gödöllő, Rigó utca",47.616487,19.347640,,,
11581,"Gödöllő, Sportközpont",47.600419,19.331966,,,
11582,"Gödöllő, Sportközpont",47.600332,19.332132,,,
11583,"Gödöllő, Szabadság tér",47.597285,19.347462,,,
11584,"Gödöllő, Szabadság tér",47.597998,19.349066,,,
11585,"Gödöllő, Szabadság tér",47.596701,19.348429,,,
11586,"Gödöllő, Szárítópuszta",47.578263,19.403679,,,
11587,"Gödöllő, Szárítópuszta",47.578373,19.403238,,,
11588,"Gödöllő, Szarvas utca",47.610164,19.369036,,,
11589,"Gödöllő, Szarvas utca",47.609797,19.369439,,,
1159,"Aparhant, Rózsadomb utca",46.329769,18.450259,,,
11590,"Gödöllő, Széchenyi István utca",47.605119,19.340197,,,
11591,"Gödöllő, Széchenyi István utca",47.604039,19.341344,,,
11592,"Gödöllő, Szilhát utca",47.602224,19.342568,,,
11593,"Gödöllő, Szilhát utca",47.601760,19.343281,,,
11594,"Gödöllő, Szilhát utca 3.",47.602002,19.343997,,,
11595,"Gödöllő, szökőkút",47.599177,19.346855,,,
11596,"Gödöllő, szökőkút",47.599174,19.346729,,,
11597,"Gödöllő, Szőlő utca 47.",47.606824,19.348308,,,
11598,"Gödöllő, Szőlő utca 47.",47.608081,19.349425,,,
11599,"Gödöllő, Táncsics Mihály úti óvoda",47.597565,19.337487,,,
116,"Abaújlak, autóbusz-váróterem",48.404965,20.951790,,,
1160,"Aparhant, Rózsadomb utca",46.329591,18.449967,,,
11600,"Gödöllő, Táncsics Mihály úti óvoda",47.597605,19.337408,,,
11601,"Gödöllő, Tél utca",47.596809,19.385387,,,
11602,"Gödöllő, Tél utca",47.596443,19.385819,,,
11603,"Gödöllő, TIGÁZ",47.607192,19.331377,,,
11606,"Gödöllő, Tisza utca",47.601840,19.369615,,,
11607,"Gödöllő, Tisza utca",47.601972,19.370498,,,
11608,"Gödöllő, Török Ignác utca",47.592800,19.352605,,,
11609,"Gödöllő, Török Ignác utca",47.592252,19.353036,,,
1161,"Apátfalva, 40-es km-kő (43. sz. út)",46.179622,20.572647,,,
11610,"Gödöllő, Úrréti-tó",47.616996,19.331252,,,
11611,"Gödöllő, Úrréti-tó",47.616111,19.332020,,,
11612,"Gödöllő, Üzleti Park főépület",47.590437,19.329084,,,
11613,"Gödöllő, Üzleti Park Kühne Ede utca",47.590182,19.324240,,,
11614,"Gödöllő, Vaskapui út (Kőkereszt)",47.575113,19.431267,,,
11615,"Gödöllő, Vaskapui út (Kőkereszt)",47.575346,19.430777,,,
11616,"Gödöllő, vasútállomás",47.591620,19.358217,,,
11618,"Gödöllő, vasútállomás",47.592250,19.357611,,,
11619,"Gödöllő, vasútállomás",47.593493,19.357575,,,
1162,"Apátfalva, 40-es km-kő (43. sz. út)",46.179826,20.572401,,,
11621,"Gödöllő, vasútállomás",47.591465,19.357884,,,
11622,"Göd, Pázmány Péter utca",47.670317,19.132386,,,
11623,"Göd, Pázmány Péter utca",47.671096,19.132652,,,
11624,"Gödre, alsó",46.280413,17.976236,,,
11625,"Gödre, alsó",46.279647,17.975797,,,
11626,"Gödre, Gödreszentmárton",46.271324,18.007581,,,
11627,"Gödre, Gödreszentmárton",46.271173,18.007713,,,
11628,"Gödre (Kiskeresztúr), elágazás",46.293035,17.962172,,,
11629,"Gödre (Kiskeresztúr), elágazás",46.293116,17.961353,,,
1163,"Apátfalva, ABC",46.174443,20.577160,,,
11630,"Gödre (Kiskeresztúr), elágazás",46.293167,17.960719,,,
11631,"Gödre (Kiskeresztúr), elágazás",46.293067,17.962175,,,
11632,"Gödre (Kiskeresztúr), forduló",46.297633,17.972015,,,
11633,"Gödre, mezőgazdasági telep",46.270616,17.988758,,,
11634,"Gödre, mezőgazdasági telep",46.270485,17.988469,,,
11635,"Gödre, templom",46.286860,17.973264,,,
11636,"Gödre, templom",46.286813,17.973204,,,
11637,"Göd, szigetmonostori rév",47.680442,19.133599,,,
11638,"Göd, szigetmonostori rév",47.680228,19.133456,,,
11642,"Göd, városháza",47.687519,19.134298,,,
11643,"Göd, városháza",47.686683,19.134112,,,
11645,"Gógánfa, autóbusz-váróterem",47.020854,17.186861,,,
11646,"Gógánfa, Vasút utca",47.022167,17.197417,,,
11647,"Gógánfa, Vasút utca",47.022232,17.198218,,,
11648,Golf Hotel,47.617745,18.345853,,,
11649,"Gölle, alsó",46.432512,18.015332,,,
1165,"Apátfalva, Kereszt utca",46.172357,20.588205,,,
11650,"Gölle (Inámpuszta), autóbusz-váróterem",46.464867,18.047089,,,
11651,"Gölle (Inámpuszta), felső",46.465589,18.039387,,,
11652,"Gölle (Inámpuszta), felső",46.465638,18.039656,,,
11653,"Gölle, templom",46.438101,18.011491,,,
11654,"Gölle, templom",46.438435,18.011249,,,
11655,"Golop, autóbusz-forduló",48.237629,21.190532,,,
11656,"Golop, vasúti megállóhely bejárati út",48.242641,21.205057,,,
11657,"Golop, vasúti megállóhely bejárati út",48.242159,21.204664,,,
11658,"Golop, vasúti megállóhely bejárati út",48.242247,21.205407,,,
11659,Gólyafészkes,46.500769,19.463843,,,
1166,"Apátfalva, Kereszt utca",46.172582,20.587288,,,
11660,Gólyafészkes,46.500527,19.463440,,,
11661,"Gomba, autóbusz-forduló",47.374541,19.521191,,,
11662,"Gomba, autóbusz-forduló",47.374918,19.520917,,,
11663,"Gomba, lovarda",47.366726,19.507724,,,
11664,"Gomba, lovarda",47.366694,19.508145,,,
11665,"Gomba, malomi elágazás",47.363201,19.527060,,,
11666,"Gomba, malomi elágazás",47.363304,19.527729,,,
11667,"Gomba, malomi elágazás",47.362730,19.527943,,,
11668,"Gomba, Patay József utca",47.372455,19.525297,,,
11669,"Gomba, Patay József utca",47.372735,19.524873,,,
1167,"Apátfalva, községháza",46.170054,20.573649,,,
11670,"Gomba, református templom",47.370564,19.531302,,,
11671,"Gomba, református templom",47.370699,19.531877,,,
11672,"Gomba, Tetei elágazás",47.384372,19.503662,,,
11673,"Gomba, Tetei elágazás",47.384399,19.503148,,,
11674,Gomba utca,47.951834,21.745563,,,
11675,Gomba utca,47.951979,21.744454,,,
11676,"Gomba, Vár út",47.366311,19.517843,,,
11677,"Gomba, Vár út",47.366133,19.518250,,,
11678,Gombolyag,46.582462,19.029003,,,
11679,Gombosszegi elágazás,46.759241,16.734514,,,
11680,Gombosszegi elágazás,46.759061,16.734013,,,
11681,Gombosszegi elágazás,46.758829,16.734361,,,
11682,"Gombosszeg, temető",46.757048,16.720033,,,
11683,"Gombosszeg, temető",46.757020,16.719015,,,
11684,"Gömörszőlős, községháza",48.373580,20.427214,,,
11685,"Gönc, fatelep",48.473087,21.257524,,,
11686,"Gönc, fatelep",48.472941,21.257366,,,
11687,Gönci elágazás,48.478218,21.261570,,,
11688,Gönci elágazás,48.477969,21.260889,,,
11689,Gönci elágazás,48.477962,21.262028,,,
